<?xml version="1.0"?>
<gpx creator="Matt Wallis" version="1.1" xmlns="http://www.topografix.com/GPX/1/1" xmlns:xsi="http://www.w3.org/2001/XMLSchema-instance" xsi:schemaLocation="http://www.topografix.com/GPX/1/1 http://www.topografix.com/GPX/1/1/gpx.xsd">
<wpt lat="48.56503" lon="-3.42689">
  <name>Kervernard - Plounevez Moedec (22) [&lt;51] (139m)</name>
  <sym>Camp</sym>
</wpt>
<wpt lat="48.57736" lon="-4.03014">
  <name>Municipal Lanorgant** - Plouvorn (01/07-31/08) &gt;+33298613240 (66m)</name>
  <sym>Camp</sym>
</wpt>
<wpt lat="48.59436" lon="-3.3739">
  <name>Le Manoir Du Cleuziou**** - Louargat (01/04-30/09) &gt;+33296435932 (137m)</name>
  <sym>Camp</sym>
</wpt>
<wpt lat="48.59646" lon="-4.01369">
  <name>Ti Tulipe - Plouvorn (29) [&lt;51] (01/04-01/10) &gt;+33298610812 (47m)</name>
  <sym>Camp</sym>
</wpt>
<wpt lat="48.60461" lon="-3.74164">
  <name>La ferme Croas Men* - Plouigneau [&lt;51] (01/04-31/10) &gt;+33298791150 (72m)</name>
  <sym>Camp</sym>
</wpt>
<wpt lat="48.61139" lon="-3.5775">
  <name>Rugadello** - Plufur [&lt;51] (15/06-31/08) &gt;+33296351676 (123m)</name>
  <sym>Camp</sym>
</wpt>
<wpt lat="48.61577" lon="-3.76801">
  <name>Vert de Morlaix - Garlan [&lt;51] (Easter-31/10) &gt;+33298791254 (56m)</name>
  <sym>Camp</sym>
</wpt>
<wpt lat="48.63476" lon="-3.92962">
  <name>Municipal De Kerilis - Henvic (29) [&lt;51] (01/07-31/08) &gt;+33298628210 (64m)</name>
  <sym>Camp</sym>
</wpt>
<wpt lat="48.64347" lon="-3.64289">
  <name>Aire naturelle Ker Roland - Plestin Les Greves (22) [&lt;51] &gt;+33296350837 (48m)</name>
  <sym>Camp</sym>
</wpt>
<wpt lat="48.6456" lon="-3.95662">
  <name>Tal Ar Mor - Plouenan (29) [&lt;51] (01/05-30/09) &gt;+33298158935 (16m)</name>
  <sym>Camp</sym>
</wpt>
<wpt lat="48.64947" lon="-3.92082">
  <name>Les Hortensias - Carantec (29) [&lt;51] (01/05-30/09) &gt;+33298670863 (44m)</name>
  <sym>Camp</sym>
</wpt>
<wpt lat="48.65877" lon="-3.92883">
  <name>Les Mouettes - Carantec (29) (17/04-06/09) &gt;+33298670246 (11m)</name>
  <sym>Camp</sym>
</wpt>
<wpt lat="48.65958" lon="-3.84819">
  <name>La Baie de Terenez - Plouezoc'h (29) (05/04-28/09) &gt;+33298672680 -CCA(8m)</name>
  <sym>Camp</sym>
</wpt>
<wpt lat="48.66456" lon="-3.78102">
  <name>Des Etangs Mesqueau - Plougasnou (29) (15/02-31/10) &gt;+33298673745 -CCA(70m)</name>
  <sym>Camp</sym>
</wpt>
<wpt lat="48.66802" lon="-3.60077">
  <name>Municipal Saint-Efflam*** - Plestin les Greves (01/04-03/10) &gt;+33296356215 (11m)</name>
  <sym>Camp</sym>
</wpt>
<wpt lat="48.6683" lon="-3.30633">
  <name>Le Cheval Rouge - Prat (22) [&lt;51] (01/01-31/12) &gt;+33296470774 (87m)</name>
  <sym>Camp</sym>
</wpt>
<wpt lat="48.67282" lon="-4.05343">
  <name>Municipal Du Bois De La Palud - Plougoulm (29) [&lt;51] (15/06-31/08) &gt;+33298298182 (35m)</name>
  <sym>Camp</sym>
</wpt>
<wpt lat="48.67654" lon="-3.65247">
  <name>Le Rugunay** - Locquirec (01/04-15/10) &gt;+33298674106 (43m)</name>
  <sym>Camp</sym>
</wpt>
<wpt lat="48.68069" lon="-3.65383">
  <name>Municipal Du Fond de la Baie** - Locquirec (01/01-31/12) &gt;+33298674085 -CCpg68(9m)</name>
  <sym>Camp</sym>
</wpt>
<wpt lat="48.68097" lon="-3.62829">
  <name>Kerdrehoret Les Hortensias** - Plestin les Greves [&lt;51] (01/06-01/09) &gt;+33296356158 (40m)</name>
  <sym>Camp</sym>
</wpt>
<wpt lat="48.6832" lon="-3.62524">
  <name>La Corniche** - Plestin les Greves [&lt;51] (15/06-15/09) &gt;+33296541191 (46m)</name>
  <sym>Camp</sym>
</wpt>
<wpt lat="48.68539" lon="-3.78515">
  <name>Du Tregor - Plougasnou (29) [&lt;51] (01/04-30/11) &gt;+33298673764 (79m)</name>
  <sym>Camp</sym>
</wpt>
<wpt lat="48.68631" lon="-4.07666">
  <name>Ar Roch - Sibiril (29) [&lt;51] (15/06-15/09) &gt;+33298299714 (9m)</name>
  <sym>Camp</sym>
</wpt>
<wpt lat="48.6898" lon="-4.08357">
  <name>Le Theven - Sibiril (29) (01/01-31/12) &gt;+33298299686 (15m)</name>
  <sym>Camp</sym>
</wpt>
<wpt lat="48.69068" lon="-3.96761">
  <name>Ar Kleguer - Saint Pol De Leon (29) (01/04-28/09) &gt;+33298691881 -CCA(5m)</name>
  <sym>Camp</sym>
</wpt>
<wpt lat="48.69295" lon="-3.55753">
  <name>Les Capucines - Tredrez Locquemeau (22) (01/04-21/09) &gt;+33296357228 -CCA(85m)</name>
  <sym>Camp</sym>
</wpt>
<wpt lat="48.69341" lon="-3.96933">
  <name></name>
  <sym>Camp</sym>
</wpt>
<wpt lat="48.69386" lon="-4.05561">
  <name>Municipal des Dunes - Santec (29) +33298297534 (6m)</name>
  <sym>Camp</sym>
</wpt>
<wpt lat="48.69396" lon="-3.77499">
  <name>Municipal Pont A Gler - Saint Jean Du Doigt (29) [51] (28/06-30/08) +33298673215 (16m)</name>
  <sym>Camp</sym>
</wpt>
<wpt lat="48.70268" lon="-3.83503">
  <name>Kerven - Plougasnou (29) [51] (01/05-30/09) +33298724122 (39m)</name>
  <sym>Camp</sym>
</wpt>
<wpt lat="48.70456" lon="-4.04865">
  <name>Le Billou - Santec (29) [51] +33298294353 (6m)</name>
  <sym>Camp</sym>
</wpt>
<wpt lat="48.70724" lon="-3.98898">
  <name>Le Kerestat - Roscoff (29) [51] +33298697192 (40m)</name>
  <sym>Camp</sym>
</wpt>
<wpt lat="48.71411" lon="-4.00866">
  <name>Aux Quatre Saisons - Roscoff (29) (01/04-11/10) +33607412853 (4m)</name>
  <sym>Camp</sym>
</wpt>
<wpt lat="48.71428" lon="-3.81521">
  <name>Municipal De La Mer - Plougasnou (29) (15/04-26/10) +33298723706 (14m)</name>
  <sym>Camp</sym>
</wpt>
<wpt lat="48.7216" lon="-3.4864">
  <name>Aire naturelle Bel Air - Lannion (22) [51] (15/06-31/08) +33296376643 (98m)</name>
  <sym>Camp</sym>
</wpt>
<wpt lat="48.72295" lon="-3.44633">
  <name>Intercommunal des 2 Rives - Lannion (22) [51] +33296463140 (9m)</name>
  <sym>Camp</sym>
</wpt>
<wpt lat="48.72402" lon="-3.57151">
  <name>Municipal Keravilin - Tredrez Locquemeau (22) (01/06-30/09) +33296352644 (5m)</name>
  <sym>Camp</sym>
</wpt>
<wpt lat="48.73827" lon="-3.54477">
  <name>Les plages de Beg Leguer - Lannion (22) (12/04-02/11) +33296472500 -CCA(66m)</name>
  <sym>Camp</sym>
</wpt>
<wpt lat="48.75141" lon="-3.5063">
  <name>Les Alizes - Lannion (06/04-28/09) +33296472858 -CCpg67(104m)</name>
  <sym>Camp</sym>
</wpt>
<wpt lat="48.75183" lon="-3.48995">
  <name>Aire naturelle de la Damany-Kroas Min - Lannion (22) [51] (15/06-31/08) +33296472221 (100m)</name>
  <sym>Camp</sym>
</wpt>
<wpt lat="48.76043" lon="-3.56202">
  <name>De Kerdual - Trebeurden (22) [51] (20/04-30/09) +33296235486 (32m)</name>
  <sym>Camp</sym>
</wpt>
<wpt lat="48.76112" lon="-3.56241">
  <name>Roz Ar Mor - Trebeurden (22) [51] (01/04-30/09) +33296235812 (42m)</name>
  <sym>Camp</sym>
</wpt>
<wpt lat="48.76455" lon="-3.56154">
  <name>Armor Loisirs - Trebeurden (22) (01/04-30/09) +33296235231 (73m)</name>
  <sym>Camp</sym>
</wpt>
<wpt lat="48.77596" lon="-3.37553">
  <name>Municipal - Kermaria Sulard (22) [51] +33296384390 (80m)</name>
  <sym>Camp</sym>
</wpt>
<wpt lat="48.79125" lon="-3.55796">
  <name>l'Esperance - Trebeurden (22) (02/04-29/10) +33296919505 (4m)</name>
  <sym>Camp</sym>
</wpt>
<wpt lat="48.79418" lon="-3.48221">
  <name>Ferme De Kerangloff - Perros Guirec (22) [51] +33296232867 (90m)</name>
  <sym>Camp</sym>
</wpt>
<wpt lat="48.79657" lon="-3.42689">
  <name>Municipal Ernest Renan - Louannec (22) (01/05-30/09) +33296231178 (8m)</name>
  <sym>Camp</sym>
</wpt>
<wpt lat="48.79905" lon="-3.58386">
  <name>Municipal Le Dourlin - Pleumeur Bodou (22) (20/04-30/09) +33296919241 (4m)</name>
  <sym>Camp</sym>
</wpt>
<wpt lat="48.80158" lon="-3.56733">
  <name>Abri Cotier - Pleumeur Bodou (22) (01/04-30/09) +33296919203 (10m)</name>
  <sym>Camp</sym>
</wpt>
<wpt lat="48.80401" lon="-3.5724">
  <name>Le Dolmen - Pleumeur Bodou (22) [51] +33297521235 (24m)</name>
  <sym>Camp</sym>
</wpt>
<wpt lat="48.81032" lon="-3.54036">
  <name>Le Port - Pleumeur Bodou (22) (15/03-30/11) +33296238779 -CCA(3m)</name>
  <sym>Camp</sym>
</wpt>
<wpt lat="48.81289" lon="-3.54421">
  <name>Municipal Landrellec - Pleumeur Bodou (22) (25/04-15/09) +33296238779 (7m)</name>
  <sym>Camp</sym>
</wpt>
<wpt lat="48.81321" lon="-3.386">
  <name></name>
  <sym>Camp</sym>
</wpt>
<wpt lat="48.81423" lon="-3.46027">
  <name>Trestraou - Perros Guirec (22) (30/04-30/09) +33608990393 (11m)</name>
  <sym>Camp</sym>
</wpt>
<wpt lat="48.8147" lon="-3.38347">
  <name>Municipal Le Palud - Trelevern (22) (07/06-07/09) +33296917311 (4m)</name>
  <sym>Camp</sym>
</wpt>
<wpt lat="48.81674" lon="-3.36054">
  <name>Les Macareux - Trevou Treguignec (22) [51] (01/05-15/09) +33296237145 (46m)</name>
  <sym>Camp</sym>
</wpt>
<wpt lat="48.81789" lon="-3.30305">
  <name>les Hauts de Port Blanc - Penvenan (22) (05/04-30/09) +33296928672 -CCA(68m)</name>
  <sym>Camp</sym>
</wpt>
<wpt lat="48.81943" lon="-3.35386">
  <name>Le Mat - Trevou Treguignec (22) (01/04-30/09) +33296237152 (3m)</name>
  <sym>Camp</sym>
</wpt>
<wpt lat="48.8231" lon="-3.4815">
  <name>West - Perros Guirec (22) (29/03-31/10) +33296914382 (20m)</name>
  <sym>Camp</sym>
</wpt>
<wpt lat="48.82536" lon="-3.4914">
  <name>Tourony - Tregastel (22) (25/04-21/09) +33296238661 (3m)</name>
  <sym>Camp</sym>
</wpt>
<wpt lat="48.82778" lon="-3.47419">
  <name>Le Ranolien - Perros Guirec (22) (03/04-20/09) +33296916565 (22m)</name>
  <sym>Camp</sym>
</wpt>
<wpt lat="48.83336" lon="-3.32847">
  <name>Municipal Des Dunes - Penvenan (22) (08/05-15/09) +33296926342 (3m)</name>
  <sym>Camp</sym>
</wpt>
</gpx>
