<?xml version="1.0"?>
<gpx xmlns="http://www.topografix.com/GPX/1/0" xmlns:xsi="http://www.w3.org/2001/XMLSchema-instance" xmlns:kml="http://www.opengis.net/kml/2.2" xmlns:gpx="http://www.topografix.com/GPX/1/0" version="1.0" creator="ViewRanger - http://www.viewranger.com" xsi:schemaLocation="http://www.topografix.com/GPX/1/0 http://www.topografix.com/GPX/1/0/gpx.xsd">
  <wpt lat="48.199049" lon="7.301788">
    <name>Camping MUNICIPAL 3 Châteaux 1*</name>
    <sym>Camp</sym>
    <desc>Open: ; Places: 64.0; Budget €/j: 5-10; Addr: Route Ste Marie aux Mines, 68150 RIBEAUVILLE; Tel: 03 89 73 20 00</desc>
    <url>http://goo.gl/qMij9E   
</url>
  </wpt>
  <wpt lat="48.093588" lon="7.1980189999999995">
    <name>Camping MUNICIPAL les 2 Hohnack 2*</name>
    <sym>Camp</sym>
    <desc>Open: ; Places: 100.0; Budget €/j: 15-20; Addr: 542 lieu dit Giragoutte, 68910 LABAROCHE; Tel: 03 89 49 83 72 </desc>
    <url>http://www.camping-labaroche.fr </url>
  </wpt>
  <wpt lat="47.900865" lon="7.236214">
    <name>Camping MUNICIPAL le Florival 3*</name>
    <sym>Camp</sym>
    <desc>Open: ; Places: 73.0; Budget €/j: 15-20; Addr: Route de Soultz, 68500 ISSENHEIM; Tel: 03 89 62 12 34</desc>
    <url>http://www.camping-leflorival.com</url>
  </wpt>
  <wpt lat="48.148722" lon="7.254152000000001">
    <name>Camping MUNICIPAL Kaysersberg 4*</name>
    <sym>Camp</sym>
    <desc>Open: ; Places: 110.0; Budget €/j: 15-20; Addr: Rue des Acacias, 68240 KAYSERSBERG; Tel: 03 89 47 14 47 </desc>
    <url>http://www.camping-kaysersberg.com</url>
  </wpt>
  <wpt lat="48.18113900000001" lon="7.184844">
    <name>Camping MUNICIPAL les Verts Bois 2*</name>
    <sym>Camp</sym>
    <desc>Open: ; Places: 35.0; Budget €/j: 15-20; Addr: 3 rue de la fonderie, 68240 FRELAND; Tel: 03 89 47 57 25</desc>
    <url>http://www.camping-lesvertsbois.com</url>
  </wpt>
  <wpt lat="47.982999" lon="7.018375">
    <name>Camping MUNICIPAL du Langenwasen 1*</name>
    <sym>Camp</sym>
    <desc>Open: ; Places: 120.0; Budget €/j: 10-15; Addr: Langenwasen,  68380 MITTLACH; Tel: 03 89 77 63 77 </desc>
    <url>http://www.camping-alsace.info</url>
  </wpt>
  <wpt lat="48.131976" lon="7.161906">
    <name>Camping MUNICIPAL LEFEBRE 2*</name>
    <sym>Camp</sym>
    <desc>Open: ; Places: 73.0; Budget €/j: 10-15; Addr: Camme, 68370 ORBEY; Tel: 03 89 71 37 42</desc>
    <url>http://www.camping-orbey.com</url>
  </wpt>
  <wpt lat="48.195216" lon="7.334189000000001">
    <name>Camping MUNICIPAL Pierre de Coubertin 4*</name>
    <sym>Camp</sym>
    <desc>Open: ; Places: 208.0; Budget €/j: 15-20; Addr: 23 rue de Landeau, 68160 RIBEAUVILLE ; Tel: 03 89 73 66 71</desc>
    <url>http://www.ribeauville.net/fr/camping.html</url>
  </wpt>
  <wpt lat="48.085353000000005" lon="7.272289">
    <name>Camping MUNICIPAL le Médiéval 3*</name>
    <sym>Camp</sym>
    <desc>Open: ; Places: 117.0; Budget €/j: 15-20; Addr: 5 quai de la fetch, 68230 TURCKHEIM; Tel: 03 89 27 02 00</desc>
    <url>http://www.camping-turckheim.fr</url>
  </wpt>
  <wpt lat="48.906508" lon="7.288570000000001">
    <name>Camping MUNICIPAL Hinsbourg</name>
    <sym>Camp</sym>
    <desc>Open: ; Places: 25.0; Budget €/j: 10-15; Addr: 67290 HINSBOURG; Tel: 03 88 01 56 51</desc>
    <url>http://www.tourisme-alsace.com/fr/217001409-Aire-naturelle-de-camping.html</url>
  </wpt>
  <wpt lat="48.465082" lon="7.467206">
    <name>Camping MUNICIPAL LE VALLON DE L'EHN 3*</name>
    <sym>Camp</sym>
    <desc>Open: ; Places: 150.0; Budget €/j: 20-25; Addr: 1 rue de Berlin, 67210 OBERNAI; Tel: 03 88 95 38 48</desc>
    <url>http://goo.gl/EN3bGC</url>
  </wpt>
  <wpt lat="48.643798" lon="7.407532">
    <name>Camping MUNICIPAL ROMANSWILLER 2*</name>
    <sym>Camp</sym>
    <desc>Open: ; Places: ; Budget €/j: ; Addr: 67310 ROMANSWILLER; Tel: </desc>
    <url/>
  </wpt>
  <wpt lat="48.890737" lon="8.133874">
    <name>Camping MUNICIPAL Bords du Rhin</name>
    <sym>Camp</sym>
    <desc>Open: ; Places: 73.0; Budget €/j: 20-25; Addr: route du Rhin, 67470 SELTZ; Tel: 03 88 86 85 90</desc>
    <url>http://campings-seltz.fr/   </url>
  </wpt>
  <wpt lat="48.5930091" lon="7.405048">
    <name>Camping MUNICIPAL MON REPOS 2*</name>
    <sym>Camp</sym>
    <desc>Open: ; Places: 50.0; Budget €/j: 25-30; Addr: Allée Muenchhof, 67190 STILL; Tel: 03 88 50 04 30</desc>
    <url>http://goo.gl/zMNmNX </url>
  </wpt>
  <wpt lat="48.637163" lon="7.432121999999999">
    <name>Camping MUNICIPAL WASSELONNE 3*</name>
    <sym>Camp</sym>
    <desc>Open: ; Places: 100.0; Budget €/j: 15-20; Addr: 2 Rue des sapins, 67310 WASSELONNE; Tel: 03 88 87 00 08</desc>
    <url>http://www.camping-wasselonne.com</url>
  </wpt>
  <wpt lat="48.41396300000001" lon="7.670387999999999">
    <name>Camping MUNICIPAL ERSTEIN 2**</name>
    <sym>Camp</sym>
    <desc>Open: ; Places: 50.0; Budget €/j: 15-20; Addr: rue de la sucrerie ,67600 ERSTEIN; Tel: 03 88 92 03 98</desc>
    <url>http://goo.gl/nw31Nj</url>
  </wpt>
  <wpt lat="48.969344" lon="8.164344">
    <name>Camping MUNICIPAL les MOUETTES 3***</name>
    <sym>Camp</sym>
    <desc>Open: ; Places: 36.0; Budget €/j: 15-20; Addr: Base de Plein Air et Loisirs, 67630 LAUTERBOURG; Tel: 03 88 54 68 60</desc>
    <url>http://www.camping-lauterbourg.fr/</url>
  </wpt>
  <wpt lat="48.916662" lon="7.367276999999999">
    <name>Camping MUNICIPAL WINGEN SUR MODER 1* </name>
    <sym>Camp</sym>
    <desc>Open: ; Places: 35.0; Budget €/j: 10-15; Addr: Rue de Zittersheim ,67290 WINGEN SUR MODER; Tel: 03 88 89 72 54</desc>
    <url>http://goo.gl/uK9kim</url>
  </wpt>
  <wpt lat="48.918495" lon="8.155042">
    <name>Camping MUNICIPAL AU RHIN ET A LA SAUER 2**</name>
    <sym>Camp</sym>
    <desc>Open: ; Places: 100.0; Budget €/j: 15-20; Addr: 67470 MUNCHHAUSEN; Tel: 03 88 86 11 80</desc>
    <url>http://goo.gl/aT6Z8U</url>
  </wpt>
  <wpt lat="48.348606" lon="7.106524">
    <name>Camping MUNICIPAL le Rove</name>
    <sym>Camp</sym>
    <desc>Open: ; Places: 35.0; Budget €/j: 10-15; Addr: Route de la grand fosse, 67420 SAALES; Tel: 03 88 97 70 26</desc>
    <url>http://www.tourisme-alsace.com/fr/215000170-Camping-Rove.html </url>
  </wpt>
  <wpt lat="48.254084" lon="7.448000999999999">
    <name>Camping MUNICIPAL les CIGOGNES 2*</name>
    <sym>Camp</sym>
    <desc>Open: ; Places: 48.0; Budget €/j: 15-20; Addr: Rue de la 1ere DFL, 67600 SELESTAT; Tel: 03 88 92 03 98</desc>
    <url>http://www.camping.selestat.fr </url>
  </wpt>
  <wpt lat="47.468776" lon="7.207116999999999">
    <name>Camping INTERCOMMUNAL du PLAN D EAU 3*</name>
    <sym>Camp</sym>
    <desc>Open: ; Places: 45.0; Budget €/j: 10-15; Addr: le Plan d eau, 68480 COURTAVON; Tel: 06 42 80 56 67 </desc>
    <url>http://www.sundgau-sudalsace.fr</url>
  </wpt>
  <wpt lat="47.881556" lon="6.944132">
    <name>Camping MUNICIPAL Benelux Bale</name>
    <sym>Camp</sym>
    <desc>Open: ; Places: 167.0; Budget €/j: 10-15; Addr: Rue de la Scierie, 68121 URBES; Tel: 03 89 82 60 91</desc>
    <url>http://www.camping-urbes.fr/fr/accueil/</url>
  </wpt>
  <wpt lat="47.941018" lon="7.147095">
    <name>Camping le Vert Vallon 3*</name>
    <sym>Camp</sym>
    <desc>Open: ; Places: 34.0; Budget €/j: 15-20; Addr: 51, Grand'Rue,  68610 Lautenbach-Zell ; Tel: 03 89 74 01 80</desc>
    <url>http://goo.gl/QuyEmV</url>
  </wpt>
  <wpt lat="49.082215" lon="7.494006000000001">
    <name>Camping MUNICIPAL l etang d HASPELSCHIELDT</name>
    <sym>Camp</sym>
    <desc>Open: ; Places: 50.0; Budget €/j: ; Addr: 57230 HASPELSCHIEDT; Tel: 03.87.96.53.91</desc>
    <url>http://goo.gl/pn6BTf </url>
  </wpt>
  <wpt lat="47.779064" lon="6.991403">
    <name>Camping MUNICIPAL de Masevaux 3*</name>
    <sym>Camp</sym>
    <desc>Open: ; Places: 150.0; Budget €/j: 15-20; Addr: rue du Stade, 68290 MASEVAUX; Tel: 03 89 82 42 29</desc>
    <url>http://www.masevaux.fr/camping</url>
  </wpt>
  <wpt lat="48.162507" lon="7.316937">
    <name>Camping MUNICIPAL de Riquewhir </name>
    <sym>Camp</sym>
    <desc>Open: ; Places: 161.0; Budget €/j: 15-20; Addr: 1 route des vins, 68340 RIQUEWHIR ; Tel: 03 89 47 90 08</desc>
    <url>http://www.campingriquewihr.com/</url>
  </wpt>
  <wpt lat="48.4061865" lon="7.323031399999999">
    <name>Camping MUNICIPAL le Herrenhaus</name>
    <sym>Camp</sym>
    <desc>Open: ; Places: 87.0; Budget €/j: 10-15; Addr: 28 rue du Herrenhaus, 67140 Le Hohwald; Tel: 03 88 08 30 90</desc>
    <url>http://goo.gl/0IIiJo</url>
  </wpt>
  <wpt lat="47.9561628" lon="7.295436900000001">
    <name>Camping MUNICIPAL de Rouffach</name>
    <sym>Camp</sym>
    <desc>Open: ; Places: 30.0; Budget €/j: 10-15; Addr: 4 rue de la Piscine, 68250 Rouffach; Tel: 03 89 49 78 13</desc>
    <url>http://goo.gl/If0qSJ</url>
  </wpt>
  <wpt lat="47.9805863" lon="7.21982">
    <name>Camping MUNICIPAL de la Vallee Noble 2*</name>
    <sym>Camp</sym>
    <desc>Open: ; Places: 200.0; Budget €/j: 15-20; Addr: Rue du Stade ,68570 Osenbach 
; Tel: 03 89 47 05 22</desc>
    <url>http://www.camping-osenbach.fr/</url>
  </wpt>
  <wpt lat="48.68766" lon="7.875995600000001">
    <name>Camping MUNICIPAL Gamsheim</name>
    <sym>Camp</sym>
    <desc>Open: ; Places: 20.0; Budget €/j: 10-15; Addr: 10a rue de la Gravière, 67760 GAMBSHEIM; Tel: 03 88 96 42 59</desc>
    <url>http://goo.gl/HXCoV4</url>
  </wpt>
  <wpt lat="48.560242" lon="7.5173964">
    <name>Camping Municipal Molsheim 2*</name>
    <sym>Camp</sym>
    <desc>Open: ; Places: 95.0; Budget €/j: 15-20; Addr: 6 rue des Sports, 67120 MOLSHEIM; Tel: 03 88 49 82 45</desc>
    <url>http://www.molsheim.fr/decouvrir/camping-municipal.htm</url>
  </wpt>
  <wpt lat="43.602801" lon="-1.456375">
    <name>Camping Municipal  les Pins Bleus 3*</name>
    <sym>Camp</sym>
    <desc>Open: ; Places: ; Budget €/j: 20-25; Addr: Avenue de l ocean, 40133 LABENNE; Tel: 05 59 45 41 13</desc>
    <url>http://www.lespinsbleus.com </url>
  </wpt>
  <wpt lat="45.082036" lon="-1.186523">
    <name>Camping Municipal de Carcans-Océan 3*</name>
    <sym>Camp</sym>
    <desc>Open: ; Places: ; Budget €/j: 30-35; Addr: 1, rue du Camping, 33121 Carcans-Plage; Tel: 05 56 03 41 44</desc>
    <url>http://www.camping-carcans-ocean.com</url>
  </wpt>
  <wpt lat="44.656329" lon="0.591556">
    <name>Camping Municipal de la Ferrette </name>
    <sym>Camp</sym>
    <desc>Open: ; Places: ; Budget €/j: 10-15; Addr: Route de Bergerac, 47330 CASTILLONNES; Tel: 05 53 36 94 68 </desc>
    <url>http://goo.gl/Uwfhye</url>
  </wpt>
  <wpt lat="44.388911" lon="0.446545">
    <name>Camping Municipal Panoramique 1*</name>
    <sym>Camp</sym>
    <desc>Open: ; Places: ; Budget €/j: 5-10; Addr: 47260 LAPARADE; Tel: 05 53 84 05 19</desc>
    <url>http://goo.gl/DzixYj</url>
  </wpt>
  <wpt lat="44.57708" lon="0.620492">
    <name>Camping Municipal  Lougratte 2*</name>
    <sym>Camp</sym>
    <desc>Open: ; Places: ; Budget €/j: 10-15; Addr: 47290 LOUGRATTE; Tel: 06 63 32 15 52 </desc>
    <url>http://www.lougratte.com</url>
  </wpt>
  <wpt lat="44.677969" lon="0.177273">
    <name>Camping Municipal  le Chateau</name>
    <sym>Camp</sym>
    <desc>Open: ; Places: ; Budget €/j: 10-15; Addr: 47120 DURAS; Tel: 05.53.83.70.18</desc>
    <url>http://www.paysdeduras.com/campings.html</url>
  </wpt>
  <wpt lat="44.315036" lon="0.091785">
    <name>Camping Municipal  de la Piscine 2*</name>
    <sym>Camp</sym>
    <desc>Open: ; Places: ; Budget €/j: 10-15; Addr: rue du souvenir Francais, 47700 CASTELJALOUX; Tel: 05 53 93 54 68 </desc>
    <url>http://www.casteljaloux.fr</url>
  </wpt>
  <wpt lat="44.384483" lon="0.807152">
    <name>Camping Municipal  le lac de Ferie 3*</name>
    <sym>Camp</sym>
    <desc>Open: ; Places: ; Budget €/j: 15-20; Addr: Route 961, 47140 PENNE D AGENAIS; Tel: 05 53 41 30 97</desc>
    <url>http://goo.gl/RvQxNg</url>
  </wpt>
  <wpt lat="44.394052" lon="0.253716">
    <name>Camping Municipal LAGRUERE 2*</name>
    <sym>Camp</sym>
    <desc>Open: ; Places: ; Budget €/j: 10-15; Addr: Barne - Halte nautique, 47400 Lagruère; Tel: 05 53 20 95 47</desc>
    <url>http://lagruere.info</url>
  </wpt>
  <wpt lat="44.218631" lon="-1.284027">
    <name>Camping Municipal  la Plage 3*</name>
    <sym>Camp</sym>
    <desc>Open: ; Places: ; Budget €/j: 20-25; Addr: Avenue de Woolsack, 40200 MIMIZAN; Tel: 05 58 09 01 21</desc>
    <url>http://www.mimizan-camping.com</url>
  </wpt>
  <wpt lat="44.218877" lon="-1.230297">
    <name>Camping Municipal  le Lac 2*</name>
    <sym>Camp</sym>
    <desc>Open: ; Places: ; Budget €/j: 15-20; Addr: Avenue de Woolsack, 40200 MIMIZAN ; Tel: 05 58 09 01 21</desc>
    <url>http://www.mimizan-camping.com</url>
  </wpt>
  <wpt lat="43.587292" lon="-0.736256">
    <name>Camping Municipal  la DIGUE </name>
    <sym>Camp</sym>
    <desc>Open: ; Places: ; Budget €/j: 5-10; Addr: 90 route de Bonnegarde, 40330 AMOU; Tel: 05 58 89 00 22</desc>
    <url>http://goo.gl/fRXdFD</url>
  </wpt>
  <wpt lat="44.144153" lon="-1.240211">
    <name>Camping Municipal  le Tatiou 3*</name>
    <sym>Camp</sym>
    <desc>Open: ; Places: ; Budget €/j: 20-25; Addr: 40170 BIAS; Tel: 05 58 09 04 76 </desc>
    <url>http://www.campingletatiou.com</url>
  </wpt>
  <wpt lat="43.629987" lon="-1.4326">
    <name>Camping Municipal  la Civelle 3*</name>
    <sym>Camp</sym>
    <desc>Open: ; Places: ; Budget €/j: 25-30; Addr: Rue des Biches, 40130 CAPBRETON; Tel: 05 58 72 15 11 </desc>
    <url>http://www.campinglacivelle.fr</url>
  </wpt>
  <wpt lat="43.982532" lon="0.016265">
    <name>Camping Municipal  la Cheneraie 2*</name>
    <sym>Camp</sym>
    <desc>Open: ; Places: ; Budget €/j: 10-15; Addr: Bordenave rd38, 40310 GABARRET; Tel: 05 58 44 92 62 </desc>
    <url>http://goo.gl/c6ABEz</url>
  </wpt>
  <wpt lat="43.792767" lon="-1.406186">
    <name>Camping Municipal  les Sableres 3*</name>
    <sym>Camp</sym>
    <desc>Open: ; Places: ; Budget €/j: 25-30; Addr: Boulevard du Marensin , 40480 VIEUX BOUCAU LES BAINS; Tel: 05 58 48 12 29</desc>
    <url>http://www.camping-les-sableres.com</url>
  </wpt>
  <wpt lat="44.037257" lon="-1.334839">
    <name>Camping Municipal  la plage du cap de l Homy 3*</name>
    <sym>Camp</sym>
    <desc>Open: ; Places: ; Budget €/j: 30-35; Addr: 600, avenue de l'Océan, 40170 LIT ET MIXE; Tel: 05 58 42 83 47</desc>
    <url>http://www.camping-cap.com</url>
  </wpt>
  <wpt lat="43.649057" lon="-0.590515">
    <name>Camping Municipal  la Cite Verte </name>
    <sym>Camp</sym>
    <desc>Open: ; Places: ; Budget €/j: 20-25; Addr: Chemin des Loussets, 40700 HAGETMAU; Tel: 05 58 79 79 79 </desc>
    <url>http://www.tourisme-hagetmau.com</url>
  </wpt>
  <wpt lat="43.773093" lon="-0.435762">
    <name>Camping Municipal l Adour 2*</name>
    <sym>Camp</sym>
    <desc>Open: ; Places: ; Budget €/j: 10-15; Addr: Rue du Parc des Sports, 40270 GRENADE SUR L ADOUR ; Tel: 05 58 45 91 14</desc>
    <url>http://goo.gl/yxQMuz</url>
  </wpt>
  <wpt lat="43.635811" lon="-0.382032">
    <name>Camping Municipal  Geaune 2*</name>
    <sym>Camp</sym>
    <desc>Open: ; Places: ; Budget €/j: 10-15; Addr: 11, route de Clèdes, 40320 GEAUNE; Tel: 05 58 44 50 27 </desc>
    <url>http://goo.gl/pYQyRr</url>
  </wpt>
  <wpt lat="43.758728" lon="-0.75325">
    <name>Camping Municipal  la Saucille 2*</name>
    <sym>Camp</sym>
    <desc>Open: ; Places: ; Budget €/j: 10-15; Addr: Rue du Vieux Port, 40250 MUGRON; Tel: 05 58 97 98 50</desc>
    <url>http://goo.gl/YEeH4s</url>
  </wpt>
  <wpt lat="45.434238" lon="-1.031427">
    <name>Camping Municipal  St Vivien 1*</name>
    <sym>Camp</sym>
    <desc>Open: ; Places: ; Budget €/j: 10-15; Addr: 35 rue Ludovic Trarieux, 33590 ST VIVIEN DE MEDOC; Tel: 05 56 09 43 77</desc>
    <url>http://goo.gl/9VA4TL</url>
  </wpt>
  <wpt lat="44.823202" lon="-0.109198">
    <name>Camping Municipal Sainte Terre</name>
    <sym>Camp</sym>
    <desc>Open: ; Places: ; Budget €/j: 10-15; Addr: 33350 STE TERRE; Tel: 05 57 47 16 23</desc>
    <url>http://goo.gl/ATqUQz</url>
  </wpt>
  <wpt lat="45.090975" lon="-0.543823">
    <name>Camping Municipal  de Teuillac</name>
    <sym>Camp</sym>
    <desc>Open: ; Places: ; Budget €/j: 10-15; Addr: 33710 TEUILLAC; Tel: 05 57 64 34 55</desc>
    <url>http://goo.gl/rw32WA</url>
  </wpt>
  <wpt lat="45.185379" lon="-0.7425">
    <name>Camping Municipal  les Gabarreys 4*</name>
    <sym>Camp</sym>
    <desc>Open: ; Places: ; Budget €/j: 20-25; Addr: Route de la Rivière, 33250 PAUILLAC; Tel: 05 56 59 10 03 </desc>
    <url>http://www.pauillac-medoc.com</url>
  </wpt>
  <wpt lat="45.26788" lon="-1.161289">
    <name>Camping Municipal  du Pin Sec 1*</name>
    <sym>Camp</sym>
    <desc>Open: ; Places: ; Budget €/j: 15-20; Addr: 33990 NAUJAC SUR MER; Tel: 05 56 73 00 66 </desc>
    <url>http://www.naujac.com</url>
  </wpt>
  <wpt lat="44.750756" lon="-1.178112">
    <name>Camping Municipal les Pastourelles 3*</name>
    <sym>Camp</sym>
    <desc>Open: ; Places: ; Budget €/j: 20-25; Addr: Claouey, 33950 LEGE CAP FERRET; Tel: 05 56 60 70 61</desc>
    <url>http://www.legecapferret.fr/lespastourelles</url>
  </wpt>
  <wpt lat="44.891816" lon="-1.20532">
    <name>Camping Municipal  la Grigne 2*</name>
    <sym>Camp</sym>
    <desc>Open: ; Places: ; Budget €/j: 25-30; Addr: Route de l'Océan, 33680 LE PORGE; Tel: 05 56 26 54 88</desc>
    <url>http://www.leporge.fr</url>
  </wpt>
  <wpt lat="45.433876" lon="-1.146355">
    <name>Camping Municipal  LE GURP 2*</name>
    <sym>Camp</sym>
    <desc>Open: ; Places: ; Budget €/j: 20-25; Addr: route de l ocean, 33590 GRAYAN ET L HOPITAL ; Tel: 05 56 09 44 53</desc>
    <url>http://goo.gl/8sL8d5</url>
  </wpt>
  <wpt lat="44.82903" lon="0.03695">
    <name>Camping Municipal  Lo Qualh </name>
    <sym>Camp</sym>
    <desc>Open: ; Places: ; Budget €/j: 5-10; Addr: le bourg sud, 33350 FLAUJAGUES; Tel: 05 57 40 72 23 </desc>
    <url>http://goo.gl/R412YU</url>
  </wpt>
  <wpt lat="45.249105" lon="-0.628302">
    <name>Camping Municipal  Braud 2*</name>
    <sym>Camp</sym>
    <desc>Open: ; Places: ; Budget €/j: 10-15; Addr: 33820 BRAUD ET ST LOUIS; Tel: 05 57 42 60 87</desc>
    <url>http://goo.gl/Bnf98H</url>
  </wpt>
  <wpt lat="45.038536" lon="-0.561311">
    <name>Camping Municipal  la citadelle 2*</name>
    <sym>Camp</sym>
    <desc>Open: ; Places: ; Budget €/j: 15-20; Addr: rue du roc, 33710 BOURG; Tel: 05 57 68 40 04</desc>
    <url>http://goo.gl/l8iScC</url>
  </wpt>
  <wpt lat="45.129417" lon="-0.666196">
    <name>Camping Municipal  la Citadelle</name>
    <sym>Camp</sym>
    <desc>Open: ; Places: ; Budget €/j: 10-15; Addr: 33390 BLAYE; Tel: 05 57 42 00 20 </desc>
    <url>http://goo.gl/zpiq62</url>
  </wpt>
  <wpt lat="44.793226" lon="1.207337">
    <name>Camping  Municipal CENAC 1*</name>
    <sym>Camp</sym>
    <desc>Open: ; Places: ; Budget €/j: 10-15; Addr: RD 46, 24250 CENAC ET ST JULIEN; Tel: 05 53 28 31 91</desc>
    <url>http://goo.gl/6yWkPI</url>
  </wpt>
  <wpt lat="45.337607" lon="1.059709">
    <name>Camping Municipal  EXCIDEUIL</name>
    <sym>Camp</sym>
    <desc>Open: ; Places: ; Budget €/j: 10-15; Addr: Pont Rouge, 24160 EXCIDEUIL; Tel: 05 53 62 43 72</desc>
    <url>http://goo.gl/7C7isK</url>
  </wpt>
  <wpt lat="44.873146" lon="1.432557">
    <name>Camping Municipal  la Borgne 2*</name>
    <sym>Camp</sym>
    <desc>Open: ; Places: ; Budget €/j: 15-20; Addr: La Borgne, 24370 CAZOULES; Tel: 05 53 29 81 64</desc>
    <url>http://goo.gl/hWRaJM</url>
  </wpt>
  <wpt lat="45.677236" lon="0.640206">
    <name>Camping Municipal  ST MARTIAL 2*</name>
    <sym>Camp</sym>
    <desc>Open: ; Places: ; Budget €/j: 10-15; Addr: le clos de l ouvrage, 24360 BUSSEROLLES; Tel: 05.53.60.53.04</desc>
    <url>http://goo.gl/IykkLe</url>
  </wpt>
  <wpt lat="43.1259829" lon="-0.4626276">
    <name>Camping Municipal  les CHENES </name>
    <sym>Camp</sym>
    <desc>Open: ; Places: ; Budget €/j: 10-15; Addr: Rue Cassoures, 64 260 - BUZY; Tel: 05 59 04 80 27</desc>
    <url>http://goo.gl/SKxXQD</url>
  </wpt>
  <wpt lat="43.345155" lon="-0.259552">
    <name>Camping Municipal la PISCINE</name>
    <sym>Camp</sym>
    <desc>Open: ; Places: ; Budget €/j: 10-15; Addr: Route de la Bastide, 64160 MORLAAS; Tel: 05 59 12 00 87</desc>
    <url>http://goo.gl/gpH5Qq</url>
  </wpt>
  <wpt lat="43.02473" lon="-0.42572">
    <name>Camping Municipal MONTPLAISIR </name>
    <sym>Camp</sym>
    <desc>Open: ; Places: ; Budget €/j: 15-20; Addr: Quartier Monplaisir, 64260 GERE BELESTEN; Tel: 05 59 82 61 18</desc>
    <url>http://goo.gl/wl3BvX</url>
  </wpt>
  <wpt lat="42.99316" lon="-0.414219">
    <name>Camping Municipal Au Pied de l Aubisque 3*</name>
    <sym>Camp</sym>
    <desc>Open: ; Places: ; Budget €/j: 15-20; Addr: Quartier Laneplaa, 64 440 BEOST; Tel: 05 59 82 45 05</desc>
    <url>http://goo.gl/VSNdca</url>
  </wpt>
  <wpt lat="42.998621" lon="-0.598068">
    <name>Camping Municipal CAROLE 2*</name>
    <sym>Camp</sym>
    <desc>Open: ; Places: ; Budget €/j: 10-15; Addr: 64490 BEDOUS; Tel: 05 59 34 59 19</desc>
    <url>http://www.tourisme-aspe.com</url>
  </wpt>
  <wpt lat="42.932296" lon="-0.63446">
    <name>Camping Municipal le LAUZART 2*</name>
    <sym>Camp</sym>
    <desc>Open: ; Places: ; Budget €/j: 15-20; Addr: 64490 LESCUN; Tel: 05 59 34 61 77</desc>
    <url>http://camping-lescun.com/</url>
  </wpt>
  <wpt lat="43.465005" lon="-0.62032">
    <name>Camping Municipal L OREE du BOIS 2*</name>
    <sym>Camp</sym>
    <desc>Open: ; Places: ; Budget €/j: 15-20; Addr: 2 allee des sports , 64000 ARTHEZ DE BEARN; Tel: 05 59 67 76 56</desc>
    <url>http://www.camping-arthez.com/</url>
  </wpt>
  <wpt lat="43.408352" lon="-1.6354180000000003">
    <name>Camping Municipal  CHIBAU BERRIA 2*</name>
    <sym>Camp</sym>
    <desc>Open: ; Places: ; Budget €/j: 25-30; Addr: 525 Chemin de Chibau Berria, 64500 ST JEAN DE LUZ; Tel: 05 59 26 11 94 </desc>
    <url>http://goo.gl/Ap5GOn</url>
  </wpt>
  <wpt lat="43.475844" lon="-0.9385159999999999">
    <name>Camping Municipal  MOSQUEROS 2*</name>
    <sym>Camp</sym>
    <desc>Open: ; Places: ; Budget €/j: 10-15; Addr: Route de Bayonne, 64270 SALIES DE BEARN; Tel: 06 73 12 52 37</desc>
    <url>http://goo.gl/JRsLVn</url>
  </wpt>
  <wpt lat="43.321181" lon="-0.576782">
    <name>Camping Municipal le Pont Lat 2*</name>
    <sym>Camp</sym>
    <desc>Open: ; Places: ; Budget €/j: 10-15; Addr: 64360 MONEIN; Tel: 05 59 71 27 23</desc>
    <url>http://goo.gl/54qz2d</url>
  </wpt>
  <wpt lat="43.160615" lon="-1.236906">
    <name>Camping Municipal PLAZA BERRI 2*</name>
    <sym>Camp</sym>
    <desc>Open: ; Places: ; Budget €/j: 10-15; Addr: Avenue du fronton, 64220 SAINT-JEAN-PIED-DE-PORT; Tel: 05 59 37 11 19</desc>
    <url>http://goo.gl/GVb6Za</url>
  </wpt>
  <wpt lat="43.184323" lon="-1.335933">
    <name>Camping Municipal de L IROULEGUY 2*</name>
    <sym>Camp</sym>
    <desc>Open: ; Places: ; Budget €/j: 10-15; Addr: Borciriette, 64430 ST ETIENNE DE BAIGORRY; Tel: 05 59 37 40 80</desc>
    <url>http://goo.gl/LV6ib4 </url>
  </wpt>
  <wpt lat="45.257957" lon="0.49454600000000004">
    <name>Camping Municipal  le PRE SEC 3*</name>
    <sym>Camp</sym>
    <desc>Open: ; Places: ; Budget €/j: 10-15; Addr: 24350 TOCANE ST APRE; Tel: 05 53 90 40 60</desc>
    <url>http://www.campingdupresec.com </url>
  </wpt>
  <wpt lat="45.412536" lon="0.9348250000000001">
    <name>Camping Municipal  le REPAIRE 3*</name>
    <sym>Camp</sym>
    <desc>Open: ; Places: ; Budget €/j: 20-25; Addr: le repaire, 24800 THIVIERS; Tel: 05 53 52 69 75</desc>
    <url>http://www.camping-le-repaire.fr </url>
  </wpt>
  <wpt lat="45.496646" lon="0.74825">
    <name>Camping Municipal  Saint Pardoux la Rivoirerie 2*</name>
    <sym>Camp</sym>
    <desc>Open: ; Places: ; Budget €/j: 10-15; Addr: La Font Pissotte,  24470 ST PARDOUX LA RIVIERE; Tel: 05 53 60 81 74</desc>
    <url>http://goo.gl/AuX8lA </url>
  </wpt>
  <wpt lat="45.011525" lon="1.088891">
    <name>Camping Municipal  ST LEON / VEZERE</name>
    <sym>Camp</sym>
    <desc>Open: ; Places: ; Budget €/j: 10-15; Addr: 24290 ST LEON SUR VEZERE; Tel: 05 53 50 73 16</desc>
    <url>http://goo.gl/DFdvaO </url>
  </wpt>
  <wpt lat="44.86402100000001" lon="1.360073">
    <name>Camping Municipal  le BOURNIOU 2*</name>
    <sym>Camp</sym>
    <desc>Open: ; Places: ; Budget €/j: 15-20; Addr: Le Bourniou, 24370 ST JULIEN DE LAMPON; Tel: 05 53 29 83 39</desc>
    <url>http://www.camping-bourniou.com </url>
  </wpt>
  <wpt lat="45.208045" lon="0.132222">
    <name>Camping Municipal  de la PLAGE 3*</name>
    <sym>Camp</sym>
    <desc>Open: ; Places: ; Budget €/j: 10-15; Addr: au pont, 24410 ST AULAYE; Tel: 05 53 90 62 20</desc>
    <url>http://www.saint-aulaye.com </url>
  </wpt>
  <wpt lat="45.446824" lon="0.45129800000000003">
    <name>Camping Municipal  VIEUX MOULIN </name>
    <sym>Camp</sym>
    <desc>Open: ; Places: ; Budget €/j: 20-25; Addr: 10 rue Arnaud de Mareuil, 24340 MAREUIL; Tel: 05 53 60 99 80</desc>
    <url>http://mareuil.camping.free.fr</url>
  </wpt>
  <wpt lat="45.148836" lon="-0.001931">
    <name>Camping Municipal  du Meridien</name>
    <sym>Camp</sym>
    <desc>Open: ; Places: ; Budget €/j: 10-15; Addr: rue de la dronne, 24490 La Roche-Chalais; Tel: 05 53 91 40 65</desc>
    <url>http://www.larochechalais.com/chrono/index.php</url>
  </wpt>
  <wpt lat="44.307512" lon="-1.178284">
    <name>Camping Municipal  le LAC 3*</name>
    <sym>Camp</sym>
    <desc>Open: ; Places: ; Budget €/j: 20-25; Addr: route du lac, 40200 STE EULALIE EN BORN; Tel: 05 58 09 70 10 </desc>
    <url>http://www.lecampingdulac.com</url>
  </wpt>
  <wpt lat="44.081836" lon="-1.262012">
    <name>Camping Municipal  LA LETTE FLEURIE 3*</name>
    <sym>Camp</sym>
    <desc>Open: ; Places: ; Budget €/j: 20-25; Addr: 40170 ST JULIEN EN BORN; Tel: 05 58 42 74 09 </desc>
    <url>http://www.camping-municipal-plage.com/</url>
  </wpt>
  <wpt lat="44.022693" lon="-0.3265">
    <name>Camping Municipal  SARBAZAN 2*</name>
    <sym>Camp</sym>
    <desc>Open: ; Places: ; Budget €/j: 10-15; Addr: 40120 SARBAZAN; Tel: 05 58 45 64 93 </desc>
    <url>http://goo.gl/dbvVo4</url>
  </wpt>
  <wpt lat="44.305854" lon="-0.769343">
    <name>Camping Municipal  L ARRIU 3*</name>
    <sym>Camp</sym>
    <desc>Open: ; Places: ; Budget €/j: 10-15; Addr: 525 chemin de l arriu, 40410 PISSOS; Tel: 05 58 08 90 38 </desc>
    <url>http://goo.gl/zzv8SS</url>
  </wpt>
  <wpt lat="43.531003" lon="-1.063871">
    <name>Camping Municipal  la GALUPE 2*</name>
    <sym>Camp</sym>
    <desc>Open: ; Places: ; Budget €/j: 10-15; Addr: 242 chemin du camping, 40300 SORDE L ABBAYE; Tel: 05 58 73 18 13 </desc>
    <url>http://goo.gl/iumhHp</url>
  </wpt>
  <wpt lat="44.06863200000001" lon="-1.229412">
    <name>Camping Municipal  La Passerelle 2*</name>
    <sym>Camp</sym>
    <desc>Open: ; Places: ; Budget €/j: 15-20; Addr: Route des Lacs, 40170 ST JULIEN EN BORN; Tel: 05 58 42 80 18 </desc>
    <url>http://www.camping-municipal-bourg.com</url>
  </wpt>
  <wpt lat="43.880464" lon="-1.1373">
    <name>Camping Municipal  le GALAN 2*</name>
    <sym>Camp</sym>
    <desc>Open: ; Places: ; Budget €/j: 10-15; Addr: 73, Rue du stade, 40260 Castets; Tel: 05 58 89 43 52</desc>
    <url>http://www.camping-legalan.com</url>
  </wpt>
  <wpt lat="44.577569" lon="-0.033131">
    <name>Camping Municipal  la Rouergue 2*</name>
    <sym>Camp</sym>
    <desc>Open: ; Places: ; Budget €/j: 15-20; Addr: 33190 LA REOLE; Tel: 06 20 31 98 12</desc>
    <url>http://goo.gl/WPflHx</url>
  </wpt>
  <wpt lat="44.523039" lon="0.036993">
    <name>Camping Municipal  au Jardin</name>
    <sym>Camp</sym>
    <desc>Open: ; Places: ; Budget €/j: 5-10; Addr: 47180 Meilhan-sur-Garonne; Tel: 05 53 94 30 04</desc>
    <url>http://goo.gl/VifmJQ</url>
  </wpt>
  <wpt lat="43.610119" lon="-0.991452">
    <name>Camping Municipal de POUILLON</name>
    <sym>Camp</sym>
    <desc>Open: ; Places: ; Budget €/j: 10-15; Addr: Bd des sports, 40350 POUILLON; Tel: 05 58 98 21 62</desc>
    <url>http://goo.gl/IiR3bb</url>
  </wpt>
  <wpt lat="44.266346" lon="-0.519791">
    <name>Aire Naturelle Municipale LUXEY</name>
    <sym>Camp</sym>
    <desc>Open: ; Places: ; Budget €/j: 5-10; Addr: ; Tel: 05 58 04 70 70</desc>
    <url>http://goo.gl/QV9QCX</url>
  </wpt>
  <wpt lat="42.979346" lon="-0.606222">
    <name>Aire Municipale Naturelle ACCOUS</name>
    <sym>Camp</sym>
    <desc>Open: ; Places: ; Budget €/j: 5-10; Addr: Route du Caillaü et de LacuardeQuartier Lhers, 64490 ACCOUS; Tel: 06 70 20 45 86</desc>
    <url>http://goo.gl/qwHqkx</url>
  </wpt>
  <wpt lat="44.628817000000005" lon="0.29139">
    <name>Camping Municipal de l Allemans du dropt</name>
    <sym>Camp</sym>
    <desc>Open: ; Places: ; Budget €/j: 5-10; Addr: 47800 ALLEMANS-DU-DROPT; Tel: 07 88 47 03 17</desc>
    <url>http://goo.gl/swI9vN</url>
  </wpt>
  <wpt lat="44.304733" lon="0.344417">
    <name>Camping Municipal du Vieux Moulin</name>
    <sym>Camp</sym>
    <desc>Open: ; Places: ; Budget €/j: 10-15; Addr: route de villeneuve, 47190 AIGUILLON; Tel: 05 53 79 61 43</desc>
    <url>http://goo.gl/QYgY5t</url>
  </wpt>
  <wpt lat="44.524783" lon="0.639009">
    <name>Camping Municipal du Lac 1* </name>
    <sym>Camp</sym>
    <desc>Open: ; Places: ; Budget €/j: 10-15; Addr: route du Lac, 47290 CANCON; Tel: 05 53 41 11 39 </desc>
    <url>http://goo.gl/mXixDe </url>
  </wpt>
  <wpt lat="44.362151" lon="0.391388">
    <name>Camping Municipal de Clairac 2*</name>
    <sym>Camp</sym>
    <desc>Open: ; Places: ; Budget €/j: ; Addr: Route de la plage, 47320 CLAIRAC ; Tel: 05 53 84 22 21</desc>
    <url>http://goo.gl/Ag5IF2</url>
  </wpt>
  <wpt lat="44.634704" lon="-0.321661">
    <name>Camping Intercommunal des Coteaux de Garonne</name>
    <sym>Camp</sym>
    <desc>Open: ; Places: ; Budget €/j: 15-20; Addr: rue du Porc, 33410 CADILLAC ; Tel: 05 56 62 72 98</desc>
    <url>http://goo.gl/K5l0HC </url>
  </wpt>
  <wpt lat="45.483063" lon="-1.13893">
    <name>Camping Municipal les Oyats 2*</name>
    <sym>Camp</sym>
    <desc>Open: ; Places: ; Budget €/j: 30-35; Addr: Boulevard Guy Albospeyre, 33780 SOULAC SUR MER; Tel: 05 56 09 78 54</desc>
    <url>http://campinglesoyats.jimdo.com</url>
  </wpt>
  <wpt lat="44.643926" lon="-1.110864">
    <name>Camping Municipal  de la Verdalle 2*</name>
    <sym>Camp</sym>
    <desc>Open: ; Places: ; Budget €/j: 25-30; Addr: 2 allee de l Infante, 33470 GUJAN MESTRAT; Tel: 05 56 66 12 62</desc>
    <url>http://www.campingdeverdalle.com/ </url>
  </wpt>
  <wpt lat="44.065957" lon="0.64903">
    <name>Camping Municipal  du Pont du Gers</name>
    <sym>Camp</sym>
    <desc>Open: ; Places: ; Budget €/j: 10-15; Addr: 47220 ASTAFFORT; Tel: 05 53 67 13 33</desc>
    <url>http://goo.gl/q6Fwza </url>
  </wpt>
  <wpt lat="44.046944" lon="-0.323625">
    <name>Camping Municipal  de Roquefort 2*</name>
    <sym>Camp</sym>
    <desc>Open: ; Places: ; Budget €/j: 10-15; Addr: 78 allee de Nauton, 40245 ROQUEFORT des LANDES ; Tel: pas de tel, installez vous</desc>
    <url>http://www.roquefort-des-landes.fr </url>
  </wpt>
  <wpt lat="45.3844812" lon="-1.152792">
    <name>Camping Municipal de l Océan</name>
    <sym>Camp</sym>
    <desc>Open: ; Places: ; Budget €/j: 25-30; Addr: Avenue de Joinville, 33390 Vendays Montalivet; Tel: 05 56 73 32 02</desc>
    <url>http://www.ot-vendays-montalivet.fr/ </url>
  </wpt>
  <wpt lat="44.693796" lon="5.4894300000000005">
    <name>Camping Municipal les Chassieres 2*</name>
    <sym>Camp</sym>
    <desc>Open: ; Places: 164.0; Budget €/j: 20-25; Addr: 26410 CHATILLON EN DIOIS; Tel: 04 75 21 10 30</desc>
    <url>http://www.camping-chatillonendiois.com </url>
  </wpt>
  <wpt lat="44.694681" lon="5.304723">
    <name>Camping MUNICIPAL la Colombe </name>
    <sym>Camp</sym>
    <desc>Open: ; Places: 50.0; Budget €/j: 10-15; Addr: 26340 AUREL; Tel: 04 75 21 70 56 </desc>
    <url>http://goo.gl/IBvH5K</url>
  </wpt>
  <wpt lat="44.517945" lon="5.211146">
    <name>Camping MUNICIPAL Bouvieres 2*</name>
    <sym>Camp</sym>
    <desc>Open: ; Places: 20.0; Budget €/j: 10-15; Addr: 26460 BOUVIERES; Tel: 04 75 53 20 02 </desc>
    <url>http://goo.gl/OEkO4y</url>
  </wpt>
  <wpt lat="44.274858" lon="5.276656">
    <name>Camping MUNICIPAL le Jalinier </name>
    <sym>Camp</sym>
    <desc>Open: ; Places: 74.0; Budget €/j: 10-15; Addr: Quartier du Jalinier, 26170 BUIS LES BARONNIES; Tel: 04 75 28 04 96</desc>
    <url>http://goo.gl/XrYmFI</url>
  </wpt>
  <wpt lat="44.718441" lon="4.351959">
    <name>Camping MUNICIPAL le Pont de l Huile</name>
    <sym>Camp</sym>
    <desc>Open: ; Places: 30.0; Budget €/j: 10-15; Addr: Pont de l'Huile, 07530 ANTRAIGUES SUR VOLANE; Tel: 04 75 38 70 10</desc>
    <url>http://goo.gl/nARgdt</url>
  </wpt>
  <wpt lat="44.853329" lon="4.353805">
    <name>Camping MUNICIPAL la GANDOLE </name>
    <sym>Camp</sym>
    <desc>Open: ; Places: 15.0; Budget €/j: ns; Addr: 07160 DORNAS; Tel: 04 75 29 23 45</desc>
    <url>http://www.dornas.fr/page2.html#4</url>
  </wpt>
  <wpt lat="44.823552" lon="4.070649">
    <name>Camping Municipal Lac d ISSARLES 2*</name>
    <sym>Camp</sym>
    <desc>Open: ; Places: 180.0; Budget €/j: 10-15; Addr: Les Bords du Lac, 07470 LE LAC D ISSARLES; Tel: 04 66 46 20 70</desc>
    <url>http://www.campinglesbordsdulacdissarles.fr</url>
  </wpt>
  <wpt lat="44.900488" lon="4.323817">
    <name>Camping Municipal ARCENS 2**</name>
    <sym>Camp</sym>
    <desc>Open: ; Places: 15.0; Budget €/j: 10-15; Addr: 07310 ARCENS; Tel: 04 75 30 40 72</desc>
    <url>http://goo.gl/dktJfy</url>
  </wpt>
  <wpt lat="44.738351" lon="4.248962">
    <name>Camping Municipal RIEU SEPOUX 2*</name>
    <sym>Camp</sym>
    <desc>Open: ; Places: 30.0; Budget €/j: 10-15; Addr: Rieu Sépoux, 07450 BURZET; Tel: 04 75 88 09 06</desc>
    <url>http://goo.gl/7yjlPE</url>
  </wpt>
  <wpt lat="44.813993" lon="4.399338">
    <name>Camping Municipal de GOURJATOUX 2*</name>
    <sym>Camp</sym>
    <desc>Open: ; Places: 25.0; Budget €/j: 10-15; Addr: 07190 MARCOLS LES EAUX; Tel: 04 75 65 63 36</desc>
    <url>http://goo.gl/XwQGTi</url>
  </wpt>
  <wpt lat="44.943903" lon="4.730644">
    <name>Camping MUNICIPAL la DUZONNE 2*</name>
    <sym>Camp</sym>
    <desc>Open: ; Places: 55.0; Budget €/j: 15-20; Addr: Le Plan d'Eau, 07440 ALBOUSSIERE; Tel: 04 75 58 20 91</desc>
    <url>http://www.camping-alboussiere.fr</url>
  </wpt>
  <wpt lat="44.668165" lon="4.168797">
    <name>Camping MUNICIPAL le GRAND PRE 1*</name>
    <sym>Camp</sym>
    <desc>Open: ; Places: 50.0; Budget €/j: 10-15; Addr: Le Grand Pré , 07330 BARNAS; Tel: 04 75 36 40 12</desc>
    <url>http://goo.gl/gi1Cd9</url>
  </wpt>
  <wpt lat="44.805118" lon="3.9709140000000005">
    <name>Camping MUNICIPAL COUCOURON 2**</name>
    <sym>Camp</sym>
    <desc>Open: ; Places: 85.0; Budget €/j: 10-15; Addr: Le village, 07470 COUCOURON; Tel: 04 66 46 13 08</desc>
    <url>http://www.coucouron.fr</url>
  </wpt>
  <wpt lat="45.117872" lon="4.535637">
    <name>Camping MUNICIPAL le PRE du MOULIN 2*</name>
    <sym>Camp</sym>
    <desc>Open: ; Places: 70.0; Budget €/j: 10-15; Addr: 07520 LALOUVESC; Tel: 04 75 67 84 86</desc>
    <url>http://www.lalouvesc.com</url>
  </wpt>
  <wpt lat="44.725718" lon="4.003959">
    <name>Camping Municipal LANARCE 2*</name>
    <sym>Camp</sym>
    <desc>Open: ; Places: 35.0; Budget €/j: 10-15; Addr: 07660 LANARCE; Tel: 04 66 69 47 87</desc>
    <url>http://goo.gl/wlDoFg</url>
  </wpt>
  <wpt lat="44.831526" lon="4.449463">
    <name>Camping Municipal BOIS CHABRIER 2*</name>
    <sym>Camp</sym>
    <desc>Open: ; Places: 20.0; Budget €/j: ns; Addr: 07190 ALBON; Tel: 04 75 65 65 81</desc>
    <url>http://goo.gl/D1v37m</url>
  </wpt>
  <wpt lat="44.859519" lon="4.843254">
    <name>Camping Municipal CHARMES sur Rhone 2*</name>
    <sym>Camp</sym>
    <desc>Open: ; Places: 20.0; Budget €/j: 10-15; Addr: Quartier de la Grange, 07800 CHARMES SUR RHONE; Tel: 04 75 60 96 62</desc>
    <url>http://goo.gl/che54x</url>
  </wpt>
  <wpt lat="45.085157" lon="4.626617">
    <name>Camping Municipal PIARRAGEAI 2*</name>
    <sym>Camp</sym>
    <desc>Open: ; Places: 50.0; Budget €/j: 10-15; Addr: 1360 route de Brintenas, 07410 ST FELICIEN; Tel: 04 75 06 03 05</desc>
    <url>http://campingsaintfelicien.fr/fr/Accueil.html</url>
  </wpt>
  <wpt lat="45.068429" lon="4.843941">
    <name>Camping Municipal Les Lucs 3*</name>
    <sym>Camp</sym>
    <desc>Open: ; Places: 50.0; Budget €/j: 15-20; Addr: 26600 TAIN L HERMITAGE; Tel: 04 75 08 32 82</desc>
    <url>http://www.ville-tain.fr</url>
  </wpt>
  <wpt lat="44.774113" lon="4.159698">
    <name>Camping MUNICIPAL le RIEUTORD </name>
    <sym>Camp</sym>
    <desc>Open: ; Places: 5.0; Budget €/j: 10-15; Addr: 07510 USCLADES ET RIEUTORD; Tel: 04 75 38 00 48</desc>
    <url>http://goo.gl/Ei76Lo</url>
  </wpt>
  <wpt lat="44.838343" lon="4.601898">
    <name>Camping Municipal ST MICHEL 2**</name>
    <sym>Camp</sym>
    <desc>Open: ; Places: 44.0; Budget €/j: 15-20; Addr: 07360 ST MICHEL DE CHABRILLANOUX; Tel: 04 75 66 25 13</desc>
    <url>http://www.tourisme-ardeche.com</url>
  </wpt>
  <wpt lat="44.893823" lon="4.643097">
    <name>Camping Municipal le BOIS de PRAT 2*</name>
    <sym>Camp</sym>
    <desc>Open: ; Places: 40.0; Budget €/j: 10-15; Addr: Allée de Prat,07240 VERNOUX EN VIVARAIS; Tel: 04 75 58 11 90</desc>
    <url>http://goo.gl/QzqNI7</url>
  </wpt>
  <wpt lat="44.293714" lon="4.566729">
    <name>Camping Municipal VILLAGE 2*</name>
    <sym>Camp</sym>
    <desc>Open: ; Places: 70.0; Budget €/j: 10-15; Addr: Chemin la joyeuse,07700 ST MARTIN D ARDECHE; Tel: 04 75 04 65 25</desc>
    <url>http://www.ot-stmartin-ardeche.com/campings.php</url>
  </wpt>
  <wpt lat="44.397731" lon="4.386635">
    <name>Camping Municipal ZAMENHOLF 2*</name>
    <sym>Camp</sym>
    <desc>Open: ; Places: 150.0; Budget €/j: 25-30; Addr: Route de Salavas, 07150 VALLON PONT D ARC; Tel: 04 75 88 04 73</desc>
    <url>http://www.municipalvallon.com</url>
  </wpt>
  <wpt lat="44.878255" lon="4.607391">
    <name>Camping Municipal SILHAC 2*</name>
    <sym>Camp</sym>
    <desc>Open: ; Places: 10.0; Budget €/j: 5-10; Addr: 07240 SILHAC; Tel: 04 75 58 11 36</desc>
    <url>http://goo.gl/JTWCRQ</url>
  </wpt>
  <wpt lat="44.452654" lon="4.335823">
    <name>Camping Municipal RUOMS 2*</name>
    <sym>Camp</sym>
    <desc>Open: ; Places: 100.0; Budget €/j: 15-20; Addr: 07120 RUOMS; Tel: 04 75 93 99 16</desc>
    <url>http://www.ot-pays-ruomsois.com</url>
  </wpt>
  <wpt lat="44.312779" lon="4.431567">
    <name>Camping Municipal AVEN d ORGNAC 2*</name>
    <sym>Camp</sym>
    <desc>Open: ; Places: 120.0; Budget €/j: 15-20; Addr: 07150 ORGNAC L AVEN; Tel: 04 75 38 63 68</desc>
    <url>http://www.orgnacvillage.com</url>
  </wpt>
  <wpt lat="44.711427" lon="4.207764000000001">
    <name>Camping Municipal Pre Bonnefoy</name>
    <sym>Camp</sym>
    <desc>Open: ; Places: 54.0; Budget €/j: 15-20; Addr: 07560 MONTPEZAT SOUS BAUZON; Tel: 04 75 94 41 29</desc>
    <url>http://goo.gl/Waqt8Q</url>
  </wpt>
  <wpt lat="44.344967" lon="5.284424">
    <name>Camping Municipal LES CIGALES 2**</name>
    <sym>Camp</sym>
    <desc>Open: ; Places: 30.0; Budget €/j: 15-20; Addr: 26110 STE JALLE; Tel: 04 75 27 34 88</desc>
    <url>http://www.camping.sainte-jalle.fr</url>
  </wpt>
  <wpt lat="44.296333" lon="5.009766">
    <name>Camping Municipal ST MAURICE / EYGUES 2*</name>
    <sym>Camp</sym>
    <desc>Open: ; Places: 45.0; Budget €/j: 15-20; Addr: 26110 ST MAURICE SUR EYGUES; Tel: 04 75 27 60 61</desc>
    <url>http://www.saintmauricedrome.fr</url>
  </wpt>
  <wpt lat="45.009962" lon="4.848404">
    <name>Camping Municipal les VERNES 4*</name>
    <sym>Camp</sym>
    <desc>Open: ; Places: 43.0; Budget €/j: 15-20; Addr: Les Descizes, 26600 LA ROCHE DE GLUN; Tel: 04 75 84 54 11</desc>
    <url>http://goo.gl/x8v3jI</url>
  </wpt>
  <wpt lat="44.931813" lon="5.431538000000001">
    <name>Camping Municipal ST AGNAN 2*</name>
    <sym>Camp</sym>
    <desc>Open: ; Places: 30.0; Budget €/j: 10-15; Addr: 26420 ST AGNAN EN VERCORS; Tel: 04 75 48 20 67</desc>
    <url>http://www.saint-agnan-vercors.com</url>
  </wpt>
  <wpt lat="45.17816500000001" lon="4.817505">
    <name>Camping Municipal les ISLES de SILON 3*</name>
    <sym>Camp</sym>
    <desc>Open: ; Places: 81.0; Budget €/j: ; Addr: 26240 ST VALLIER; Tel: 04 75 23 22 17</desc>
    <url>http://www.ladrometourisme.com</url>
  </wpt>
  <wpt lat="45.059214" lon="5.262451">
    <name>Camping Municipal ST NAZAIRE en ROYANS 3*</name>
    <sym>Camp</sym>
    <desc>Open: ; Places: 75.0; Budget €/j: 15-20; Addr: 26190 ST NAZAIRE EN ROYANS; Tel: 04 75 48 41 18</desc>
    <url>http://www.camping-saint-nazaire-en-royans.com/</url>
  </wpt>
  <wpt lat="45.007535" lon="5.284424">
    <name>Camping MUNICIPAL ST JEAN en ROYANS 2**</name>
    <sym>Camp</sym>
    <desc>Open: ; Places: 140.0; Budget €/j: 15-20; Addr: 26190 ST JEAN EN ROYANS; Tel: 04 75 47 74 60</desc>
    <url>http://www.camping-saintjeanenroyans.com/)</url>
  </wpt>
  <wpt lat="44.203866" lon="5.535736">
    <name>Camping Municipal les BIAUX 2*</name>
    <sym>Camp</sym>
    <desc>Open: ; Places: 21.0; Budget €/j: 10-15; Addr: 26560 SEDERON; Tel: 06 58 84 69 89</desc>
    <url>http://goo.gl/yPkH4V</url>
  </wpt>
  <wpt lat="44.503362" lon="5.572815">
    <name>Camping Municipal le MOULIN 1*</name>
    <sym>Camp</sym>
    <desc>Open: ; Places: 18.0; Budget €/j: 10-15; Addr: RD 306, 26310 VALDROME; Tel: 04 75 21 40 06</desc>
    <url>http://www.ot-valdrome.com</url>
  </wpt>
  <wpt lat="44.48523900000001" lon="5.380554">
    <name>Camping MUNICIPAL la MOTTE CHALANCON 3***</name>
    <sym>Camp</sym>
    <desc>Open: ; Places: 110.0; Budget €/j: 15-20; Addr: 26470 LA MOTTE CHALANCON; Tel: 04 75 27 22 95</desc>
    <url>http://www.lamottechalancon.com/camping-municipal.html)</url>
  </wpt>
  <wpt lat="44.535675" lon="5.015259">
    <name>Camping MUNICIPAL LORETTE 2**</name>
    <sym>Camp</sym>
    <desc>Open: ; Places: 60.0; Budget €/j: 10-15; Addr: 26160 LE POËT-LAVAL; Tel: 04 75 91 00 62</desc>
    <url>http://www.campinglorette.fr/</url>
  </wpt>
  <wpt lat="44.624686" lon="5.52475">
    <name>Camping MUNICIPAL les THIBAUDS 2**</name>
    <sym>Camp</sym>
    <desc>Open: ; Places: 25.0; Budget €/j: 10-15; Addr: 26310 MISCON; Tel: 04 75 21 30 47</desc>
    <url>http://www.camping-miscon.fr/)</url>
  </wpt>
  <wpt lat="44.594379" lon="5.015259">
    <name>Camping MUNICIPAL LE PARC 2**</name>
    <sym>Camp</sym>
    <desc>Open: ; Places: 33.0; Budget €/j: 5-10; Addr: 26160 PONT DE BARRET; Tel: 04 75 90 47 64</desc>
    <url>http://www.paysdedieulefit.eu</url>
  </wpt>
  <wpt lat="44.412202" lon="5.358582">
    <name>Camping MUNICIPAL les Aires 2**</name>
    <sym>Camp</sym>
    <desc>Open: ; Places: 40.0; Budget €/j: 10-15; Addr: Les Aires, 26510 REMUZAT; Tel: 04 75 27 81 43</desc>
    <url>http://www.remuzat.com</url>
  </wpt>
  <wpt lat="44.750634" lon="5.377808">
    <name>Camping MUNICIPAL de JUSTIN 2**</name>
    <sym>Camp</sym>
    <desc>Open: ; Places: 175.0; Budget €/j: 15-20; Addr: 26150 DIE; Tel: 04 75 22 14 77</desc>
    <url>http://www.camping-die.com</url>
  </wpt>
  <wpt lat="44.172355" lon="5.443726">
    <name>Camping Municipal MONTBRUN les Bains</name>
    <sym>Camp</sym>
    <desc>Open: ; Places: 55.0; Budget €/j: 10-15; Addr: Le Pré des Arbres, 26570 MONTBRUN LES BAINS; ; Tel: 04 75 28 85 41</desc>
    <url>http://goo.gl/UQPBZl</url>
  </wpt>
  <wpt lat="44.65107" lon="5.413513">
    <name>Camping MUNICIPAL LES ECUREUILS 2**</name>
    <sym>Camp</sym>
    <desc>Open: ; Places: 30.0; Budget €/j: 10-15; Addr: 26310 RECOUBEAU JANSAC; Tel: 04 75 21 35 97</desc>
    <url>http://site.recoubeau-jansac.fr/index.php/activite/show/categorie/Tourisme-Hebergement/id/60)</url>
  </wpt>
  <wpt lat="44.564056" lon="5.013199000000001">
    <name>Camping Municipal  CHATAIGNIERS 2*</name>
    <sym>Camp</sym>
    <desc>Open: ; Places: 50.0; Budget €/j: 10-15; Addr: 26160 EYZAHUT; Tel: 04 75 90 16 35</desc>
    <url>http://goo.gl/JMG05P</url>
  </wpt>
  <wpt lat="44.416126" lon="4.899902">
    <name>Camping MUNICIPAL la ROCHECOURBIERE </name>
    <sym>Camp</sym>
    <desc>Open: ; Places: 30.0; Budget €/j: ns; Addr: 26230 GRIGNAN ; Tel: 04 75 46 50 06</desc>
    <url>http://www.ville-grignan.fr</url>
  </wpt>
  <wpt lat="44.541548" lon="4.934235">
    <name>Camping Municipal EMILE LOUBET 2*</name>
    <sym>Camp</sym>
    <desc>Open: ; Places: 40.0; Budget €/j: 10-15; Addr: Chemin de la Gallée, 26160 LA BEGUDE DE MAZENC; Tel: 04 75 50 62 69</desc>
    <url>http://www.paysdedieulefit.eu/sejour/campings.htm</url>
  </wpt>
  <wpt lat="44.964798" lon="5.421753">
    <name>Camping Municipal les BRUYERES 2*</name>
    <sym>Camp</sym>
    <desc>Open: ; Places: 84.0; Budget €/j: 15-20; Addr: 26420 LA CHAPELLE EN VERCORS; Tel: 04 75 48 21 46</desc>
    <url>http://www.lachapelleenvercors.fr</url>
  </wpt>
  <wpt lat="44.48775" lon="4.720345">
    <name>Camping Municipal la GRAVELINE 2**</name>
    <sym>Camp</sym>
    <desc>Open: ; Places: 33.0; Budget €/j: 10-15; Addr: La Graveline, 26780 CHATEAUNEUF DU RHONE; Tel: 04 75 90 80 96</desc>
    <url>http://goo.gl/RIwWC3</url>
  </wpt>
  <wpt lat="44.609046" lon="4.935608">
    <name>Camping Municipal les CIGALES 1*</name>
    <sym>Camp</sym>
    <desc>Open: ; Places: 20.0; Budget €/j: 15-20; Addr: 26450 CLEON D ANDRAN; Tel: 04 75 90 12 73</desc>
    <url>http://www.mairie-cleon-andran.fr</url>
  </wpt>
  <wpt lat="45.256552" lon="4.672794">
    <name>Camping Municipal Vaure</name>
    <sym>Camp</sym>
    <desc>Open: ; Places: 78.0; Budget €/j: 10-15; Addr: rue Mathieu Duret , 07100 Annonay; Tel: 04 75 33 73 73</desc>
    <url>http://goo.gl/zcLy9L</url>
  </wpt>
  <wpt lat="44.286994" lon="4.933248">
    <name>Camping Municipal de Tulette 3*</name>
    <sym>Camp</sym>
    <desc>Open: ; Places: 28.0; Budget €/j: 15-20; Addr: 141 rue du chateau, 26790 TULETTE; Tel: 04 26 51 03 21</desc>
    <url>http://www.tulette.fr/camping-municipal.php</url>
  </wpt>
  <wpt lat="45.247647" lon="2.693228">
    <name>Camping MUNICIPAL Apchon</name>
    <sym>Camp</sym>
    <desc>Open: Juillet - Septembre; Places: 22; Budget €/j: 5-10; Addr: 15400 APCHON; Tel: 04.71.78.05.97</desc>
    <url>http://www.apchon.fr  </url>
  </wpt>
  <wpt lat="45.368821" lon="2.407293">
    <name>Camping MUNICIPAL de Beringer</name>
    <sym>Camp</sym>
    <desc>Open: Juin-mi Septembre; Places: 40; Budget €/j: 5-10; Addr: Beringer, 15350 CHAMPAGNAC; Tel: 04 71 69 61 55 </desc>
    <url>http://www.champagnac.org  </url>
  </wpt>
  <wpt lat="45.39173" lon="2.550802">
    <name>Camping MUNICIPAL Tarentaine 3*</name>
    <sym>Camp</sym>
    <desc>Open: mi Juin-mi Septembre; Places: 120; Budget €/j: 10-15; Addr: Les Coudays , route de saignes, 15270 CHAMPS SUR TARENTAINE MARCHAL; Tel: 04 71 78 71 25 </desc>
    <url>http://www.campinglatarentaine.e-monsite.com</url>
  </wpt>
  <wpt lat="44.687626" lon="2.3757930000000003">
    <name>Camping MUNICIPAL Pres des étangs 2*</name>
    <sym>Camp</sym>
    <desc>Open: ns; Places: 40; Budget €/j: 10-15; Addr: 15340 CASSANIOUZE; Tel: 04 71 49 97 16 </desc>
    <url>http://www.cassaniouze.free.fr</url>
  </wpt>
  <wpt lat="45.26734" lon="3.122005">
    <name>Camping MUNICIPAL de la Sianne</name>
    <sym>Camp</sym>
    <desc>Open: Mi Juin - mi Septembre; Places: 30; Budget €/j: 5-10; Addr: Le Bourg, 15500 AURIAC L EGLISE; Tel: 04 71 73 91 28</desc>
    <url>http://www.paysdemassiac.com</url>
  </wpt>
  <wpt lat="44.935109" lon="2.45671">
    <name>Camping MUNICIPAL l Ombrade 2*</name>
    <sym>Camp</sym>
    <desc>Open: mi Juin-mi Septembre; Places: 166; Budget €/j: 10-15; Addr: Rue du Gué Bouliaga, 15000 AURILLAC; Tel: 04 71 48 28 87 </desc>
    <url>http://www.camping.caba.fr</url>
  </wpt>
  <wpt lat="44.78183500000001" lon="2.263184">
    <name>Camping MUNICIPAL Boisset 1*</name>
    <sym>Camp</sym>
    <desc>Open: ns; Places: 20; Budget €/j: 5-10; Addr: 15600 BOISSET; Tel: 04 71 62 20 97</desc>
    <url/>
  </wpt>
  <wpt lat="45.390735" lon="3.378296">
    <name>Camping MUNICIPAL AUZON 2**</name>
    <sym>Camp</sym>
    <desc>Open: Juillet-mi Septembre; Places: 37; Budget €/j: 10-15; Addr: 1, chemin des Moulins, 43390 AUZON; Tel: 04 71 76 18 61</desc>
    <url>http://www.auzon.net/camping.php</url>
  </wpt>
  <wpt lat="45.044419" lon="3.9303590000000006">
    <name>Camping MUNICIPAL AUDINET 3***</name>
    <sym>Camp</sym>
    <desc>Open: Juillet-mi Septembre; Places: 122; Budget €/j: 20-30; Addr: 43700 BRIVES CHARENSAC; Tel: 04 71 09 10 18</desc>
    <url>http://www.camping-audinet.fr</url>
  </wpt>
  <wpt lat="45.144273" lon="3.405762">
    <name>Camping MUNICIPAL LA RIBEYRE </name>
    <sym>Camp</sym>
    <desc>Open: ns; Places: 65; Budget €/j: 14-20; Addr: 43380 LAVOUTE CHILHAC; Tel: 04 71 77 48 03</desc>
    <url>http://www.lavoute-chilhac.com</url>
  </wpt>
  <wpt lat="45.040537" lon="4.240723000000001">
    <name>Camping MUNICIPAL SURNETTE 3***</name>
    <sym>Camp</sym>
    <desc>Open: Avril-Octobre; Places: 60; Budget €/j: 13-20; Addr: Surnette 43520 Le Mazet St Voy; Tel: 04 71 65 05 69</desc>
    <url>http://www.campingdesurnette.net</url>
  </wpt>
  <wpt lat="45.04739" lon="3.880835">
    <name>Camping MUNICIPAL BOUTHEZARD 2**</name>
    <sym>Camp</sym>
    <desc>Open: mi Mars-Octobre; Places: 80; Budget €/j: 14-20; Addr: Avenue d'Aiguilhe, 43000 LE PUY EN VELAY; Tel: 04 71 09 55 09</desc>
    <url>http://www.ot-lepuyenvelay.fr/campings/Bouthezard-ec-id105.html</url>
  </wpt>
  <wpt lat="45.330517" lon="3.699603">
    <name>Camping MUNICIPAL LES PRADES 3***</name>
    <sym>Camp</sym>
    <desc>Open: Juin-Septembre; Places: 110; Budget €/j: 14-20; Addr: Route de Vichy, 43160 LA CHAISE DIEU; Tel: 04 71 00 07 88</desc>
    <url>http://www.la-chaise-dieu.info/campings-et-yourtes.php</url>
  </wpt>
  <wpt lat="45.306618" lon="4.116633">
    <name>Camping MUNICIPAL LA GARENNE 2**</name>
    <sym>Camp</sym>
    <desc>Open: Avril-Septembre; Places: 496; Budget €/j: 15-20; Addr: Route du camping, 43210 BAS EN BASSET; Tel: 04 71 66 70 01</desc>
    <url>http://www.camping-haute-loire.fr</url>
  </wpt>
  <wpt lat="45.053151" lon="3.4126280000000007">
    <name>Camping MUNICIPAL PINOLS</name>
    <sym>Camp</sym>
    <desc>Open: nc; Places: 16; Budget €/j: 10-15; Addr: 43300 PINOLS; Tel: 04 71 74 13 16</desc>
    <url/>
  </wpt>
  <wpt lat="45.300007" lon="3.7902829999999996">
    <name>Camping MUNICIPAL JULLIANGES 2**</name>
    <sym>Camp</sym>
    <desc>Open: nc; Places: 12; Budget €/j: 10-15; Addr: 43500 JULLIANGES; Tel: 04 71 03 39 00</desc>
    <url>http://www.jullianges-mairie.com</url>
  </wpt>
  <wpt lat="45.158801000000004" lon="3.58017">
    <name>Camping MUNICIPAL LAFAYETTE 2**</name>
    <sym>Camp</sym>
    <desc>Open: ns; Places: 19; Budget €/j: 15-20; Addr: 43230 CHAVANIAC LAFAYETTE; Tel: 04 71 76 65 54</desc>
    <url>http://www.auvergn-yack.com</url>
  </wpt>
  <wpt lat="44.968684" lon="3.647461">
    <name>Camping MUNICIPAL LE VIVIER 2**</name>
    <sym>Camp</sym>
    <desc>Open: Avril-mi Septembre; Places: 46; Budget €/j: 13-20; Addr: 43580 MONISTROL D'ALLIER; Tel: 04 71 57 24 14/21 21</desc>
    <url>http://www.auvergne-tourisme.info/hotellerie-de-plein-air/monistrol-d-allier/camping-le-vivier/tourisme-HPAAUV043FS0000A-1.html</url>
  </wpt>
  <wpt lat="45.11811500000001" lon="3.911133">
    <name>Camping MUNICIPAL LES LONGES 3***</name>
    <sym>Camp</sym>
    <desc>Open: Mai-mi Septembre; Places: 60; Budget €/j: 15-20; Addr: 43800 LAVOUTE SUR LOIRE; Tel: 04 71 08 18 79</desc>
    <url>http://www.lavoutesurloire.fr/index.php?option=com_content&amp;view=article&amp;id=62&amp;Itemid=18</url>
  </wpt>
  <wpt lat="45.323186" lon="3.847961">
    <name>Camping MUNICIPAL CRAPONNE/ARZON 4****</name>
    <sym>Camp</sym>
    <desc>Open: Mai-mi Octobre; Places: 30; Budget €/j: 10-15; Addr: 43500 CRAPONNE SUR ARZON; Tel: 04 71 03 23 09</desc>
    <url>http://www.craponnesurarzon.fr/-Camping-Municipal</url>
  </wpt>
  <wpt lat="44.916194" lon="3.668897">
    <name>Camping MUNICIPAL Alleyras 2**</name>
    <sym>Camp</sym>
    <desc>Open: ns; Places: 66; Budget €/j: 10-15; Addr: Le Pont d'Alleyras, 43580 ALLEYRAS; Tel: 04 71 57 56 86</desc>
    <url>http://www.camping-municipal.alleyras.fr</url>
  </wpt>
  <wpt lat="45.31546000000001" lon="3.172302">
    <name>Camping MUNICIPAL LA BESSIERE 2**</name>
    <sym>Camp</sym>
    <desc>Open: Avril-Septembre; Places: 40; Budget €/j: 10-15; Addr: 43450 BLESLE; Tel: 04 71 76 25 82</desc>
    <url>http://www.blesle.fr</url>
  </wpt>
  <wpt lat="45.102608" lon="4.281921">
    <name>Camping MUNICIPAL TENCE 3***</name>
    <sym>Camp</sym>
    <desc>Open: ns; Places: 120; Budget €/j: ...; Addr: La Levée des Frères, 43190 TENCE; Tel: 04 71 59 83 10</desc>
    <url>http://www.ville-tence.fr/?-Camping-Municipal-</url>
  </wpt>
  <wpt lat="44.769832" lon="3.885555">
    <name>Camping MUNICIPAL PRADELLES </name>
    <sym>Camp</sym>
    <desc>Open: Juillet-Aout; Places: nc; Budget €/j: 10-15; Addr: avenue de Langogne, 43420 PRADELLES; Tel: 04 71 00 85 74 </desc>
    <url>http://www.pradelles-43.com/camping.php</url>
  </wpt>
  <wpt lat="44.908414" lon="3.6254880000000003">
    <name>Camping MUNICIPAL LES FAUVETTES 2**</name>
    <sym>Camp</sym>
    <desc>Open: Avril-Septembre; Places: 20; Budget €/j: 9-15; Addr: 43580 ST PREJET D'ALLIER; Tel: 06 33 18 74 63</desc>
    <url>http://www.saintprejetdallier.com</url>
  </wpt>
  <wpt lat="44.805224" lon="3.913879">
    <name>Camping MUNICIPAL ST PAUL DE TARTAS 2**</name>
    <sym>Camp</sym>
    <desc>Open: ns; Places: 34; Budget €/j: 9-15; Addr: 43420 ST PAUL DE TARTAS; Tel: 04 71 00 81 44</desc>
    <url>http://www.saint-paul-de-tartas.fr</url>
  </wpt>
  <wpt lat="45.030833" lon="4.070435">
    <name>Camping MUNICIPAL LA CROIX BLANCHE 2**</name>
    <sym>Camp</sym>
    <desc>Open: Mai-mi Octobre; Places: 40; Budget €/j: 15-20; Addr: 43260 ST JULIEN CHAPTEUIL; Tel: 04 71 08 70 01</desc>
    <url>http://www.saintjulienchapteuil.fr/camping.php</url>
  </wpt>
  <wpt lat="45.071581" lon="3.499146">
    <name>Camping MUNICIPAL SIAUGUES 1*</name>
    <sym>Camp</sym>
    <desc>Open: mi Juin-Septembre; Places: 18; Budget €/j: 10-15; Addr: 43300 SIAUGUES STE MARIE; Tel: 04 71 74 23 68</desc>
    <url>http://www.mairie-siaugues-stemarie.fr</url>
  </wpt>
  <wpt lat="44.984228" lon="3.6859130000000007">
    <name>Camping MUNICIPAL ST PRIVAT </name>
    <sym>Camp</sym>
    <desc>Open: Mai-mi Octobre; Places: 18; Budget €/j: 5-10; Addr: Le Marchat, 43580 ST PRIVAT D ALLIER; Tel: 04 71 57 22 13</desc>
    <url>http://www.mairie-saintprivatdallier.fr</url>
  </wpt>
  <wpt lat="45.354075" lon="3.9550779999999994">
    <name>Camping MUNICIPAL ST REINE 2**</name>
    <sym>Camp</sym>
    <desc>Open: Avril-Octobre; Places: 26; Budget €/j: 10-15; Addr: Rue de l'Argentière, 43500 ST PAL DE CHALENCON; Tel: 04 71 61 30 19</desc>
    <url>http://www.saint-pal.com/spc-fr-commune.camping.html</url>
  </wpt>
  <wpt lat="44.957024" lon="3.554077">
    <name>Camping MUNICIPAL SPORTING DE LA SEUGE</name>
    <sym>Camp</sym>
    <desc>Open: 15 avril au 15 octobre; Places: 92; Budget €/j: 10-15; Addr: Avenue du Guevaudan, 43170 SAUGES ; Tel: 04 71 77 80 62</desc>
    <url>http://www.saugues.fr/tourisme/hebergements/camping</url>
  </wpt>
  <wpt lat="45.274886" lon="3.691406">
    <name>Camping MUNICIPAL LES CASSES </name>
    <sym>Camp</sym>
    <desc>Open: ns; Places: 24; Budget €/j: 10-15; Addr: Sembadel Gare, 43160 SEMBADEL; Tel: 04 71 00 94 72</desc>
    <url>http://www.auvergne-tourisme.info/hotellerie-de-plein-air/sembadel/camping-les-casses/tourisme-HPAAUV043FS0001E-1.html</url>
  </wpt>
  <wpt lat="45.207682" lon="3.7232490000000005">
    <name>Camping MUNICIPAL LA PINEDE 2**</name>
    <sym>Camp</sym>
    <desc>Open: mi Juin - mi Septembre; Places: 35; Budget €/j: 10-15; Addr: Le Chier, 43270 ALLEGRE; Tel: 04 71 00 76 79</desc>
    <url>http://www.mairie-allegre.com/index.php?option=com_content&amp;view=article&amp;id=19&amp;Itemid=17</url>
  </wpt>
  <wpt lat="45.83454" lon="2.823486">
    <name>Camping MUNICIPAL LE PREGUDA</name>
    <sym>Camp</sym>
    <desc>Open: ns; Places: 45; Budget €/j: 5-10; Addr: Le bourg, 63230 BROMONT LAMOTHE; Tel: 04 73 88 71 16</desc>
    <url>http://www.planetepuydedome.com/index-76-1.html?cat=HEB&amp;sscat=HEB_CAM</url>
  </wpt>
  <wpt lat="46.027005" lon="2.897301">
    <name>Camping MUNICIPAL le Got 1*</name>
    <sym>Camp</sym>
    <desc>Open: ns; Places: 75; Budget €/j: 5-10; Addr: 63390 CHATEAUNEUF LES BAINS; Tel: 04 73 86 67 85 </desc>
    <url>http://www.chateauneuflesbains.com/chateauneuf/pages/viewer.asp?tp=d&amp;id=2122&amp;m=1&amp;t=1&amp;theme=1&amp;ID_ELEMENT=742</url>
  </wpt>
  <wpt lat="46.027869" lon="2.902665">
    <name>Camping MUNICIPAL LES PRES DU DIMANCHE 3***</name>
    <sym>Camp</sym>
    <desc>Open: ns; Places: 45; Budget €/j: 10-15; Addr: 63390 CHATEAUNEUF LES BAINS; Tel: 04 73 86 41 50</desc>
    <url>http://www.chateauneuflesbains.com/chateauneuf/pages/viewer.asp?tp=d&amp;id=2122&amp;m=1&amp;t=1&amp;theme=1&amp;ID_ELEMENT=742</url>
  </wpt>
  <wpt lat="45.824971" lon="2.69165">
    <name>AIRE NATURELLE MUNICIPALE la Croix des Roudardes</name>
    <sym>Camp</sym>
    <desc>Open: ns; Places: ...; Budget €/j: ...; Addr: La Croix des Roudardes, 63740 CISTERNES LA FORET; Tel: 04 73 87 81 05 </desc>
    <url>http://www.auvergne-tourisme.info/hotellerie-de-plein-air/cisternes-la-foret/aire-naturelle-de-la-croix-des-roudardes/tourisme-HPAAUV063FS0004L-1.html</url>
  </wpt>
  <wpt lat="45.734943" lon="3.061066">
    <name>Camping MUNICIPAL LE CHANSET 3***</name>
    <sym>Camp</sym>
    <desc>Open: toute l'annee; Places: 200; Budget €/j: 20-25; Addr: Beringer, Avenue Marrou, 63122 CEYRAT; Tel: 04 73 61 30 73 </desc>
    <url>http://www.campingdeceyrat63.com</url>
  </wpt>
  <wpt lat="46.097995" lon="2.905884">
    <name>Camping MUNICIPAL les TARTEAUX 2**</name>
    <sym>Camp</sym>
    <desc>Open: Avril-Septembre; Places: 90; Budget €/j: 10-15; Addr: Pont de Menat, 63560 MENAT; Tel: 04 73 85 52 47 </desc>
    <url>http://www.ville-menat.com/manger-dormir/camping-municipal-les-tarteaux</url>
  </wpt>
  <wpt lat="46.162712" lon="2.833099">
    <name>Camping MUNICIPAL LA POULE D'EAU 2**</name>
    <sym>Camp</sym>
    <desc>Open: mi Avril-mi Septembre; Places: 50; Budget €/j: 10-15; Addr: 63700 ST ELOY LES MINES; Tel: 04 73 85 45 47</desc>
    <url>http://www.sainteloylesmines.com</url>
  </wpt>
  <wpt lat="45.498166" lon="2.631226">
    <name>Camping MUNICIPAL la THAILLE 3***</name>
    <sym>Camp</sym>
    <desc>Open: ns; Places: 80; Budget €/j: 15-20; Addr: 63810 BAGNOLS; Tel: 04 73 22 28 00 </desc>
    <url>http://www.bagnols63.fr/fr/information/36605/camping-municipal-thialle</url>
  </wpt>
  <wpt lat="45.729191" lon="3.34671">
    <name>Camping MUNICIPAL le COLOMBIER 2**</name>
    <sym>Camp</sym>
    <desc>Open: mi Juin-mi Septembre; Places: 40; Budget €/j: 10-15; Addr: Allée des Tennis, 63160 BILLOM; Tel: 04 73 68 91 50 </desc>
    <url>http://www.billom.fr/Hebergement</url>
  </wpt>
  <wpt lat="45.809658" lon="2.436218">
    <name>Camping MUNICIPAL FERNOEL </name>
    <sym>Camp</sym>
    <desc>Open: Juin * Septembre; Places: 10; Budget €/j: 5-10; Addr: rue Charles Rouchon, 63620 FERNOEL; Tel: 04 73 21 70 22 </desc>
    <url>http://www.planetepuydedome.com/hotellerie-de-plein-air/fernoel/camping-municipal-de-fernoel/tourisme-HPAAUV063FS0000H-1.html</url>
  </wpt>
  <wpt lat="45.768481" lon="2.763748">
    <name>Camping MUNICIPAL GELLES 2**</name>
    <sym>Camp</sym>
    <desc>Open: Avril-Octobre; Places: 45; Budget €/j: 5-10; Addr: 63740 GELLES; Tel: 04 73 87 80 20</desc>
    <url>http://www.gelles63.com</url>
  </wpt>
  <wpt lat="45.536175" lon="3.256416">
    <name>Camping MUNICIPAL LE MAS 3***</name>
    <sym>Camp</sym>
    <desc>Open: Avril-mi Novembre; Places: 140; Budget €/j: 15-20; Addr: 63500 ISSOIRE; Tel: 04 73 89 03 59 </desc>
    <url>http://www.sejours-issoire.com</url>
  </wpt>
  <wpt lat="45.485169" lon="2.540588">
    <name>Camping MUNICIPAL la CHOMETTE </name>
    <sym>Camp</sym>
    <desc>Open: ns; Places: 50; Budget €/j: ...; Addr: 63690 LABESSETTE; Tel: 04 73 22 22 98 </desc>
    <url>http://www.planetepuydedome.com/hotellerie-de-plein-air/labessette/camping-la-chomette/tourisme-HPAAUV063FS0001M-1.html</url>
  </wpt>
  <wpt lat="45.637087" lon="2.554321">
    <name>AIRE NATURELLE MUNICIPALE BOURG LASTIC</name>
    <sym>Camp</sym>
    <desc>Open: Juillet - Aout; Places: ...; Budget €/j: 5-10; Addr: Combrady, 63760 BOURG LASTIC; Tel: 04 73 21 80 28 </desc>
    <url>http://www.planetepuydedome.com/hotellerie-de-plein-air/bourg-lastic/aire-naturelle-de-combrady/tourisme-HPAAUV063FS0000G-1.html</url>
  </wpt>
  <wpt lat="45.581247" lon="2.805634">
    <name>Camping MUNICIPAL l ESQUILADOU 3***</name>
    <sym>Camp</sym>
    <desc>Open: Avril-Octobre + locations hiver; Places: 100; Budget €/j: 15-20; Addr: Route des Cascades, 63240 LE MONT DORE; Tel: 04 73 65 23 74 </desc>
    <url>http://www.sancy.com/hebergements/detail/2766/le-mont-dore/camping-municipal-l-esquiladou</url>
  </wpt>
  <wpt lat="45.472651" lon="3.721619">
    <name>Camping MUNICIPAL la GRAVIERE </name>
    <sym>Camp</sym>
    <desc>Open: mi Mai-mi Octobre; Places: 60; Budget €/j: 10-15; Addr: La Graviere, 63940 MARSAC EN LIVRADOIS; Tel: 04 73 95 60 08</desc>
    <url>http://www.planetepuydedome.com/hotellerie-de-plein-air/marsac-en-livradois/camping-la-graviere/tourisme-HPAAUV063FS0002J-1.html</url>
  </wpt>
  <wpt lat="45.900522" lon="2.7163700000000004">
    <name>Camping MUNICIPAL MIREMONT 2**</name>
    <sym>Camp</sym>
    <desc>Open: Mai-Septembre; Places: 36; Budget €/j: ...; Addr: 63380 MIREMONT; Tel: 04 73 79 92 52 </desc>
    <url>http://www.planetepuydedome.com/hotellerie-de-plein-air/miremont/camping-municipal-de-miremont/tourisme-HPAAUV063FS0000L-1.html</url>
  </wpt>
  <wpt lat="46.182683000000004" lon="2.797823">
    <name>Camping MUNICIPAL MONTAIGUT</name>
    <sym>Camp</sym>
    <desc>Open: ns; Places: 15; Budget €/j: ...; Addr: La Prade, 63700 MONTAIGUT EN COMBRAILLE; Tel: 04 73 85 09 09 </desc>
    <url>http://www.planetepuydedome.com/hotellerie-de-plein-air/montaigut/camping-municipal-de-montaigut/tourisme-HPAAUV063FS00042-1.html</url>
  </wpt>
  <wpt lat="45.83071300000001" lon="2.850952">
    <name>Camping MUNICIPAL la PALLE 3***</name>
    <sym>Camp</sym>
    <desc>Open: mi Avril-Septembre / Chalets toute l'annee; Places: 100; Budget €/j: 15-20; Addr: Route de la Miouze, 63230 PONTGIBAUD; Tel: 04 73 88 96 99 </desc>
    <url>http://www.campongibaud.free.fr</url>
  </wpt>
  <wpt lat="46.039399" lon="2.82074">
    <name>Camping MUNICIPAL L'ETANG PHILIPPE 3***</name>
    <sym>Camp</sym>
    <desc>Open: Ouvert toute l'annee pour les chalets; Places: 130; Budget €/j: 10-15; Addr: 63390 ST GERVAIS D AUVERGNE; Tel: 04 73 85 74 84 </desc>
    <url>http://www.camping-loisir.com</url>
  </wpt>
  <wpt lat="45.93396" lon="2.839966">
    <name>Camping MUNICIPAL ST GEORGES DE MONS 2**</name>
    <sym>Camp</sym>
    <desc>Open: Mai-Septembre; Places: 46; Budget €/j: 5-10; Addr: 63780 ST GEORGES DE MONS; Tel: 04 73 86 76 22 </desc>
    <url>http://www.ville-st-georges-de-mons.fr/accueil_hebergement.aspx#I00007359</url>
  </wpt>
  <wpt lat="45.413876" lon="2.721863">
    <name>Camping MUNICIPAL ST GENES CHAMPESPE</name>
    <sym>Camp</sym>
    <desc>Open: Mai-Septembre; Places: 24; Budget €/j: 5-10; Addr: 63850 ST GENES CHAMPESPE; Tel: 04 73 22 34 88</desc>
    <url>http://www.auvergne-tourisme.info/hotellerie-de-plein-air/saint-genes-champespe/camping-municipal/tourisme-HPAAUV063FS00023-1.html</url>
  </wpt>
  <wpt lat="46.138928" lon="2.9292300000000004">
    <name>Camping MUNICIPAL la PRADE 2**</name>
    <sym>Camp</sym>
    <desc>Open: Avril-Octobre; Places: 30; Budget €/j: 5-10; Addr: 63560 SERVANT; Tel: 04 73 52 40 14</desc>
    <url>http://www.servant-tourisme.com/servant-hebergement.php</url>
  </wpt>
  <wpt lat="45.619801" lon="3.0459590000000003">
    <name>AIRE NATURELLE MUNICIPALE OLLOIX</name>
    <sym>Camp</sym>
    <desc>Open: Mai-Septembre; Places: ...; Budget €/j: 5-10; Addr: Pré de Barre, 63450 OLLOIX; Tel: 04 73 39 05 54 </desc>
    <url>http://www.olloix.fr/SeLoger.html#Laire_de_camping_du_pr%E9_de_Barre</url>
  </wpt>
  <wpt lat="45.590978" lon="2.735596">
    <name>Camping MUNICIPAL les COUDERTS 2**</name>
    <sym>Camp</sym>
    <desc>Open: mi Avril-mi Octobre / Toute l'annee pour les chalets; Places: 70; Budget €/j: 10-15; Addr: route de la Banne d'orchange, 63150 MURAT LE QUAIRE; Tel: 04 73 65 54 81 </desc>
    <url>http://www.sancy.com/commune/murat-le-quaire</url>
  </wpt>
  <wpt lat="45.962129" lon="3.466358">
    <name>Camping MUNICIPAL la DORE 2**</name>
    <sym>Camp</sym>
    <desc>Open: mi Avril-Aout; Places: 100; Budget €/j: 15-20; Addr: 86, rue Claussat, 63290 PUY GUILLAUME; Tel: 04 73 94 78 51</desc>
    <url>http://www.puy-guillaume.com</url>
  </wpt>
  <wpt lat="45.529441" lon="3.917999">
    <name>Camping MUNICIPALRambaud 2**</name>
    <sym>Camp</sym>
    <desc>Open: Avril-Octobre; Places: 30; Budget €/j: 10-15; Addr: Rambaud,63660 ST ANTHEME; Tel: 04 73 95 48 79 </desc>
    <url>http://www.vallee-de-lance.com/sejourner-vallee-ance/hebergement/detail.asp?idoi=sitraCAM392387&amp;cat=camping</url>
  </wpt>
  <wpt lat="45.87041" lon="2.675171">
    <name>Camping MUNICIPAL le GRAND PRE 2**</name>
    <sym>Camp</sym>
    <desc>Open: Mai-Septembre; Places: 70; Budget €/j: 5-10; Addr: 63380 PONTAUMUR; Tel: 04 73 79 79 10</desc>
    <url>http://www.planetepuydedome.com/hotellerie-de-plein-air/pontaumur/camping-municipal-le-grand-pre/tourisme-HPAAUV063FS0002V-1.html</url>
  </wpt>
  <wpt lat="45.392905" lon="3.8715649999999995">
    <name>Camping MUNICIPAL le BANDIER 2**</name>
    <sym>Camp</sym>
    <desc>Open: Avril-mi Octobre; Places: 20; Budget €/j: 10-15; Addr: 63840 SAUSSANGE; Tel: 04 73 95 94 29</desc>
    <url>http://www.sauvessanges.fr</url>
  </wpt>
  <wpt lat="45.433154" lon="3.88092">
    <name>Camping MUNICIPAL VIVEROLS 2**</name>
    <sym>Camp</sym>
    <desc>Open: Avril-Octobre; Places: 50; Budget €/j: 10-15; Addr: Le Pradoux, 63840 VIVEROLS; Tel: 04 73 95 96 90 </desc>
    <url>http://www.viverols.free.fr/default_frame.htm</url>
  </wpt>
  <wpt lat="45.871963" lon="3.04347">
    <name>Camping MUNICIPAL Pierre et Source 3***</name>
    <sym>Camp</sym>
    <desc>Open: Mai-Septembre; Places: 60; Budget €/j: 15-20; Addr: Rue de Chancelas, 63530 VOLVIC; Tel: 04 73 33 50 16 </desc>
    <url>http://www.camping-volvic.com</url>
  </wpt>
  <wpt lat="45.46591" lon="2.719116">
    <name>Camping MUNICIPAL LES PERCE NEIGE 2**</name>
    <sym>Camp</sym>
    <desc>Open: ns; Places: 50; Budget €/j: ...; Addr: 63680 ST DONAT; Tel: 04 73 22 30 13</desc>
    <url>http://www.saintdonat-auvergne.fr</url>
  </wpt>
  <wpt lat="45.77806" lon="2.992401">
    <name>Camping MUNICIPAL ORCINES 1*</name>
    <sym>Camp</sym>
    <desc>Open: Mai-Septembre; Places: 50; Budget €/j: 10-15; Addr: Route de Limoges, 63870 ORCINES; Tel: 04 73 62 18 76</desc>
    <url>http://www.orcines-puy-de-dome.com/pratique__18_adresses-utiles_.html</url>
  </wpt>
  <wpt lat="45.842194" lon="2.760315">
    <name>Camping MUNICIPAL LA GOUTELLE </name>
    <sym>Camp</sym>
    <desc>Open: ns; Places: 32; Budget €/j: ...; Addr: Bourg de la Goutelle, 63230 LA GOUTELLE; Tel: 04 73 87 70 86</desc>
    <url>http://www.planetepuydedome.com/hotellerie-de-plein-air/la-goutelle/camping-municipal-de-la-goutelle/tourisme-HPAAUV063FS0003Q-1.html</url>
  </wpt>
  <wpt lat="45.41484" lon="3.7214469999999995">
    <name>Camping MUNICIPAL LE METZ 2**</name>
    <sym>Camp</sym>
    <desc>Open: ns; Places: 65; Budget €/j: 10-15; Addr: Loumas,  63220 ARLANC; Tel: 04 73 95 00 71</desc>
    <url>http://www.arlanc.com</url>
  </wpt>
  <wpt lat="46.519186" lon="3.6859130000000007">
    <name>Camping MUNICIPAL DOMPIERRE SUR BESBRE 2**</name>
    <sym>Camp</sym>
    <desc>Open: 15 Mai-15 Septembre; Places: 70; Budget €/j: 10-15; Addr: 03290 DOMPIERRE SUR BESBRE; Tel: 04 70 34 55 57 </desc>
    <url>http://www.mairie-dsb.fr</url>
  </wpt>
  <wpt lat="46.112516" lon="3.084755">
    <name>Camping MUNICIPAL les Nieres 2**</name>
    <sym>Camp</sym>
    <desc>Open: ns; Places: 45; Budget €/j: 10-15; Addr: Les Nières, 03450 EBREUIL; Tel: 04 70 90 70 60</desc>
    <url>http://www.tourisme-valdesioule.fr/campings-val-de-sioule.html</url>
  </wpt>
  <wpt lat="46.120845" lon="2.988281">
    <name>Camping MUNICIPAL CHOUVIGNY 2**</name>
    <sym>Camp</sym>
    <desc>Open: mi Avril-mi Septembre; Places: 33; Budget €/j: 10-15; Addr: Le Bel, 03450 CHOUVIGNY; Tel: 04 70 90 90 48 </desc>
    <url>http://www.chouvigny.planet-allier.com/camping.htm</url>
  </wpt>
  <wpt lat="46.479482" lon="2.834473">
    <name>Camping MUNICIPAL CLAIRVAL 2**</name>
    <sym>Camp</sym>
    <desc>Open: mi Avril-mi Septembre; Places: 45; Budget €/j: 10-15; Addr: route Cerilly, 03430 COSNE D ALLIER; Tel: 04 70 07 51 69</desc>
    <url>http://www.ville-cosnedallier.fr</url>
  </wpt>
  <wpt lat="46.381044" lon="3.041153">
    <name>Camping MUNICIPAL DEUX CHAISES </name>
    <sym>Camp</sym>
    <desc>Open: Avril-Septembre; Places: 12; Budget €/j: 15-20; Addr: 03240 DEUX CHAISES; Tel: 04 70 47 12 74 </desc>
    <url>http://www.auvergne-tourisme.info/hotellerie-de-plein-air/deux-chaises/camping-municipal/tourisme-HPAAUV000FS000AA-1.html</url>
  </wpt>
  <wpt lat="46.024092" lon="3.647493">
    <name>Camping MUNICIPAL le GALIZAN 2**</name>
    <sym>Camp</sym>
    <desc>Open: ns; Places: 32; Budget €/j: ...; Addr: 9 rue de l'Eglise, 03250 FERRIERES SUR SICHON; Tel: 04 70 41 10 10 </desc>
    <url>http://www.ferrieres-sur-sichon.fr/ferrieres-sur-sichon.php?f=25</url>
  </wpt>
  <wpt lat="46.510444" lon="2.705383">
    <name>Camping MUNICIPAL l AUMANCE 1*</name>
    <sym>Camp</sym>
    <desc>Open: Avril-Septembre; Places: 50; Budget €/j: 5-10; Addr: Crochepot, 03190 HERISSON; Tel: 04 70 06 88 22 </desc>
    <url>http://www.herisson03.e-monsite.com/pages/hebergements-et-restauration.html</url>
  </wpt>
  <wpt lat="46.375478" lon="2.475529">
    <name>Camping MUNICIPAL LE MOULIN DE LYON 2**</name>
    <sym>Camp</sym>
    <desc>Open: ns; Places: 75; Budget €/j: 5-10; Addr: 03380 HURIEL; Tel: 04 70 28 60 08 </desc>
    <url>http://www.mairie-huriel.fr</url>
  </wpt>
  <wpt lat="46.623034" lon="2.592773">
    <name>Camping MUNICIPAL la PLAGE du CHER</name>
    <sym>Camp</sym>
    <desc>Open: Mai-Septembre; Places: 30; Budget €/j: 5-10; Addr: Route de la Gare, 03360 URCAY; Tel: 04 70 06 96 91</desc>
    <url>http://www.auvergne-tourisme.info/hotellerie-de-plein-air/urcay/camping-municipal-la-plage-du-cher/tourisme-HPAAUV000FS0009C-1.html</url>
  </wpt>
  <wpt lat="46.310893" lon="3.305511">
    <name>Camping MUNICIPAL L'ILE DE LA RONDE 2**</name>
    <sym>Camp</sym>
    <desc>Open: Avril-Septembre; Places: 50; Budget €/j: 10-15; Addr: 03500 ST POURCAIN SUR SIOULE; Tel: 04 70 45 45 43</desc>
    <url>http://www.ville-saint-pourcain-sur-sioule.com/fr/Article/802/Camping-Municipal-de-la-Ronde</url>
  </wpt>
  <wpt lat="46.509735000000006" lon="3.815002">
    <name>Camping MUNICIPAL LE VERNAY 3***</name>
    <sym>Camp</sym>
    <desc>Open: Avril-mi Octobre; Places: 35; Budget €/j: 10-15; Addr: Route de Saligny, 03470 PIERREFITTE SUR LOIRE; Tel: 04 70 47 02 49</desc>
    <url>http://www.pierrefitte03.fr</url>
  </wpt>
  <wpt lat="46.756798" lon="3.034973">
    <name>Camping MUNICIPAL SAINT MAYEUL</name>
    <sym>Camp</sym>
    <desc>Open: ns; Places: 20; Budget €/j: 10-15; Addr: rue de Saint Mayeul, 03320 LE VEURDRE; Tel: 04 70 66 40 67</desc>
    <url>http://www.allier-auvergne-tourisme.com/hotellerie-de-plein-air/veurdre-le/camping-municipal-saint-mayeul/tourisme-HPAAUV000FS0009V-1.html</url>
  </wpt>
  <wpt lat="46.531469" lon="2.614059">
    <name>Camping MUNICIPAL VALLON EN SULLY 2**</name>
    <sym>Camp</sym>
    <desc>Open: Juin-mi Septembre; Places: 50; Budget €/j: 5-10; Addr: Allée des Soupirs, 03190 VALLON EN SULLY; Tel: 04.70.06.67.48</desc>
    <url>http://www.vallonensully.com</url>
  </wpt>
  <wpt lat="46.320378" lon="3.5980220000000003">
    <name>Camping MUNICIPAL TREZELLES 2**</name>
    <sym>Camp</sym>
    <desc>Open: closed; Places: 33; Budget €/j: ; Addr: 03220 TREZELLES; Tel: </desc>
    <url/>
  </wpt>
  <wpt lat="46.286698" lon="2.651997">
    <name>Camping MUNICIPAL le LAC 3***</name>
    <sym>Camp</sym>
    <desc>Open: Avril-Octobre; Places: 135; Budget €/j: 10-15; Addr: Rue Marx Dormoy, 03310 NERIS LES BAINS; Tel: 04 70 03 24 70</desc>
    <url>http://www.ville-neris-les-bains.fr/hebergements/campings.php</url>
  </wpt>
  <wpt lat="46.071325" lon="3.6694340000000003">
    <name>Camping MUNICIPAL LE MAYET DE MONTAGNE 2**</name>
    <sym>Camp</sym>
    <desc>Open: Mars-mi Octobre; Places: 60; Budget €/j: 5-10; Addr: 03250 LE MAYET DE MONTAGNE; Tel: 04 70 59 70 52</desc>
    <url>http://www.lemayetdemontagne.planet-allier.com</url>
  </wpt>
  <wpt lat="46.34598" lon="2.342834">
    <name>Camping MUNICIPAL HERCULAT </name>
    <sym>Camp</sym>
    <desc>Open: Avril-Septembre; Places: 40; Budget €/j: 10-15; Addr: 1 place St Julien, 03380 TREIGNAT; Tel: 04 70 07 08 83</desc>
    <url>http://www.auvergne-tourisme.info/hotellerie-de-plein-air/treignat/camping-d-herculat/tourisme-HPAAUV000FS000A0-1.html</url>
  </wpt>
  <wpt lat="46.403776" lon="3.7010189999999996">
    <name>AIRE NATURELLE MUNICIPALE Puy St Ambroise</name>
    <sym>Camp</sym>
    <desc>Open: nc; Places: 6; Budget €/j: Gratuite!; Addr: Puy St Ambroise, 03220 ST LEON; Tel: 04 70 42 15 57 </desc>
    <url>http://www.valdebesbre.com/Pages/Tourisme%20et%20loisirs/hebergements%20restauration/Camping.html</url>
  </wpt>
  <wpt lat="46.494611" lon="3.02124">
    <name>Camping MUNICIPAL ST HILAIRE 1*</name>
    <sym>Camp</sym>
    <desc>Open: ns; Places: 18; Budget €/j: 5-10; Addr: 03440 ST HILAIRE; Tel: 04 70 66 50 78</desc>
    <url/>
  </wpt>
  <wpt lat="46.594731" lon="2.617493">
    <name>Camping MUNICIPAL LE CHEVAL </name>
    <sym>Camp</sym>
    <desc>Open: Mai-Septembre; Places: 30; Budget €/j: 10-15; Addr: 03360 MEAULNE; Tel: 04 70 06 91 13</desc>
    <url>http://www.auvergne-tourisme.info/hotellerie-de-plein-air/meaulne/camping-le-cheval-blanc/tourisme-HPAAUV000FS0009A-1.html</url>
  </wpt>
  <wpt lat="46.219752" lon="2.540588">
    <name>Camping MUNICIPAL MAZIRAT 1*</name>
    <sym>Camp</sym>
    <desc>Open: mi Mars-mi Octobre; Places: 40; Budget €/j: 5-10; Addr: 03420 MAZIRAT; Tel: 04 70 51 73 07 </desc>
    <url>http://www.auvergne-tourisme.info/hotellerie-de-plein-air/mazirat/camping-municipal/tourisme-HPAAUV000FS0009E-1.html</url>
  </wpt>
  <wpt lat="46.224978" lon="2.979012">
    <name>Camping MUNICIPAL LA GRAVIERE 2**</name>
    <sym>Camp</sym>
    <desc>Open: Avril-Septembre; Places: 33; Budget €/j: 5-10; Addr: Forêt de Bois Mal, 03330 LOUROUX DE BOUBLE; Tel: 04 70 90 90 06 </desc>
    <url>http://www.louroux-de-bouble.planet-allier.com/Loisirs/Camping.html)</url>
  </wpt>
  <wpt lat="46.164139000000006" lon="3.192215">
    <name>Camping MUNICIPAL JENZAT 2**</name>
    <sym>Camp</sym>
    <desc>Open: Mai-Septembre; Places: 50; Budget €/j: 15-20; Addr: 03800 JENZAT; Tel: 04 70 56 86 35</desc>
    <url>http://www.camping-jenzat.e-monsite.com</url>
  </wpt>
  <wpt lat="46.617375" lon="2.82074">
    <name>Camping MUNICIPAL la CHAPELLE 2**</name>
    <sym>Camp</sym>
    <desc>Open: ns; Places: 40; Budget €/j: 5-10; Addr: 03350 CERILLY; Tel: 04 70 67 52 00 </desc>
    <url>http://www.mairie-cerilly.fr</url>
  </wpt>
  <wpt lat="46.580575" lon="3.047848">
    <name>Camping MUNICIPAL JEAN BIGNON 2**</name>
    <sym>Camp</sym>
    <desc>Open: Mars-Octobre; Places: 160; Budget €/j: 10-15; Addr: Boulevard Jean Bignon03160 BOURBON L'ARCHAMBAULT; Tel: 04 70 67 08 83 </desc>
    <url>http://www.ot-bourbon.com</url>
  </wpt>
  <wpt lat="46.196943" lon="3.0789180000000003">
    <name>Camping MUNICIPAL LE PONTILLARD 2**</name>
    <sym>Camp</sym>
    <desc>Open: ns; Places: 6; Budget €/j: 5-10; Addr: Route de Montmarault, 03330 BELLENAVES; Tel: 04 70 58 39 75 </desc>
    <url>http://www.bellenaves.fr</url>
  </wpt>
  <wpt lat="46.155102" lon="3.729858">
    <name>Camping MUNICIPAL de LABOULERE 2**</name>
    <sym>Camp</sym>
    <desc>Open: Mai-Septembre; Places: 66; Budget €/j: ...; Addr: Laboulère, 03120 ARFEUILLES; Tel: 04 70 55 50 11 </desc>
    <url>http://www.arfeuilles.fr</url>
  </wpt>
  <wpt lat="46.091805" lon="3.196163">
    <name>Camping MUNICIPAL le MONT LIBRE 3***</name>
    <sym>Camp</sym>
    <desc>Open: Avril-Octobre; Places: 70; Budget €/j: 10-15; Addr: Route de la Batisse, 03800 GANNAT; Tel: 04 70 90 12 16 </desc>
    <url>http://www.bassin-gannat.com/article/archive/68/</url>
  </wpt>
  <wpt lat="45.734463" lon="3.214874">
    <name>Camping MUNICIPAL le Pre des Laveuses 3***</name>
    <sym>Camp</sym>
    <desc>Open: Ouvert toute l'annee; Places: 100; Budget €/j: 25-30; Addr: Rue des Laveuses, 63800 COURNON D AUVERGNE; Tel: 04 73 84 81 30 </desc>
    <url>http://www.cournon-auvergne.fr/Decouvrir-Cournon/Camping-le-Pre-des-Laveuses</url>
  </wpt>
  <wpt lat="45.552044" lon="3.732605">
    <name>Camping MUNICIPAL les 3 CHENES 3***</name>
    <sym>Camp</sym>
    <desc>Open: nc; Places: 95; Budget €/j: 20-25; Addr: Route du Puy, 63600 AMBERT ; Tel: 04 73 82 34 68 </desc>
    <url>http://www.camping-ambert.com</url>
  </wpt>
  <wpt lat="44.891877" lon="3.203201">
    <name>Camping MUNICIPAL St Just 3*</name>
    <sym>Camp</sym>
    <desc>Open: Mai-Septembre; Places: 60; Budget €/j: 10-15; Addr: 15320 Saint-Just; Tel: 04 71 73 70 48 </desc>
    <url>http://www.saintjust.com</url>
  </wpt>
  <wpt lat="45.74836" lon="3.532104">
    <name>Camping MUNICIPAL les Taillades 2**</name>
    <sym>Camp</sym>
    <desc>Open: mi Juin-Aout; Places: 40; Budget €/j: 10-15; Addr: Allée des Taillades, 63120 COURPIERE; Tel: 04.73.51.22.80</desc>
    <url>http://www.ville-courpiere.fr/pages/index.php?page=annuaire_hotellerie</url>
  </wpt>
  <wpt lat="45.143305" lon="2.883911">
    <name>Camping MUNICIPAL STAPALOS 2**</name>
    <sym>Camp</sym>
    <desc>Open: May-Septembre; Places: 83; Budget €/j: 15-20; Addr: 15300 MURAT; Tel: 04 71 20 01 83</desc>
    <url>http://www.camping-murat.com</url>
  </wpt>
  <wpt lat="45.11811500000001" lon="2.430725">
    <name>Camping MUNICIPAL le moulin du Teinturier 3*</name>
    <sym>Camp</sym>
    <desc>Open: Mai-Septembre; Places: 68; Budget €/j: 10-15; Addr: Le Bourg, 15140 ST MARTIN VALMEROUX; Tel: 04 71 69 43 12</desc>
    <url>http://www.salers-tourisme.fr/fr/hebergement-et-restauration/le-moulin-du-teinturier</url>
  </wpt>
  <wpt lat="45.113313" lon="2.5009810000000003">
    <name>Camping MUNICIPAL la pierre Plate</name>
    <sym>Camp</sym>
    <desc>Open: mi Juin-mi Septembre; Places: 30; Budget €/j: 5-10; Addr: Le Bourg, 15140 FONTANGES; Tel: 04 71 40 71 49</desc>
    <url>http://www.auvergne-tourisme.info/hotellerie-de-plein-air/fontanges/camping-la-pierre-plate/tourisme-HPAAUV0150000141-1.html</url>
  </wpt>
  <wpt lat="45.338633" lon="2.519989">
    <name>Camping MUNICIPAL Vebret</name>
    <sym>Camp</sym>
    <desc>Open: Juin-Septembre; Places: ...; Budget €/j: 5-10; Addr: Beringer, 15240 VEBRET; Tel: 04 71 40 20 86</desc>
    <url>http://www.mairie.vebret.pagesperso-orange.fr/equipements.htm#Camping municipal</url>
  </wpt>
  <wpt lat="45.137856" lon="2.492952">
    <name>Camping MUNICIPAL de MOURIOL 3*</name>
    <sym>Camp</sym>
    <desc>Open: Avril-mi Novembre; Places: 85; Budget €/j: 15-20; Addr: Route du Puy Mar, 15140 SALERS; Tel: 04 71 40 73 09 </desc>
    <url>http://www.salers.fr/public/?code=salle-des-fetes</url>
  </wpt>
  <wpt lat="45.016273" lon="2.666245">
    <name>Camping MUNICIPAL de la Bedisse 3*</name>
    <sym>Camp</sym>
    <desc>Open: Mai-Septembre; Places: 90; Budget €/j: 15-20; Addr: 15800 THIESAC ; Tel: 04.71.47.00.41</desc>
    <url>http://www.camping-thiezac.com</url>
  </wpt>
  <wpt lat="44.70673" lon="2.515869">
    <name>Camping MUNICIPAL de la Grangeotte</name>
    <sym>Camp</sym>
    <desc>Open: Juillet-Aout; Places: 50; Budget €/j: 10-15; Addr: route de Rodez, 15120 MONTSALVY; Tel: 04 71 49 26 00</desc>
    <url>http://www.montsalvy.fr/decouvrir-la-ville/tourismeetloisirs#camping</url>
  </wpt>
  <wpt lat="45.265222" lon="2.37854">
    <name>Camping MUNICIPAL de Lavaurs</name>
    <sym>Camp</sym>
    <desc>Open: Mai-mi Septembre; Places: 27; Budget €/j: 5-10; Addr: Lavaurs, 15200 JALEYRAC; Tel: 04 71 69 73 65</desc>
    <url>http://www.auvergne-tourisme.info/hotellerie-de-plein-air/jaleyrac/camping-de-lavaurs/tourisme-HPAAUV0150000118-1.html</url>
  </wpt>
  <wpt lat="44.938557" lon="3.147926">
    <name>Camping MUNICIPAL FAVEROLLES </name>
    <sym>Camp</sym>
    <desc>Open: mi Juin-mi Septembre; Places: 6; Budget €/j: 10-15; Addr: le Bourg, 15320 FAVEROLLES ; Tel: 04 71 23 49 91</desc>
    <url>http://www.pays-saint-flour.fr/fr/il4-preparez,hebergement_p145-camping-municipal-de-faverolles.aspx?Cle=ILIVE-CANTAL-CAMP-185</url>
  </wpt>
  <wpt lat="45.574639" lon="2.813187">
    <name>CAMPING MUNICIPAL les CROUZETS 2</name>
    <sym>Camp</sym>
    <desc>Open: toute l'annee sauf Oct/Nov; Places: 58; Budget €/j: 15-20; Addr: avenue des Crouzets, 63240 LE MONT DORE; Tel: 04 73 65 21 60 </desc>
    <url>http://www.sancy.com/hebergements/detail/2767/le-mont-dore/camping-municipal-les-crouzets</url>
  </wpt>
  <wpt lat="44.921543" lon="2.805097">
    <name>Camping MUNICIPAL Saint Martin de Vigouroux</name>
    <sym>Camp</sym>
    <desc>Open: ns; Places: 32; Budget €/j: 10-15; Addr: Le Brezons, 15230 SAINT MARTIN SOUS VIGOUROUX; Tel: 04.71.23.33.61</desc>
    <url>http://www.pays-saint-flour.fr</url>
  </wpt>
  <wpt lat="45.0774" lon="2.835159">
    <name>Camping MUNICIPAL ALBEPIERRE BREDONS 1*</name>
    <sym>Camp</sym>
    <desc>Open: mi Juin -mi Septembre; Places: 45; Budget €/j: 5-10; Addr: 15300 ALBEPIERRE BREDONS; Tel: 04 71 20 20 49</desc>
    <url>http://www.officedetourismepaysdemurat.com</url>
  </wpt>
  <wpt lat="45.892398" lon="3.485756">
    <name>CAMPING MUNICIPAL LA PLANCHE DES DAMES</name>
    <sym>Camp</sym>
    <desc>Open: toute l'annee; Places: 25; Budget €/j: 10-15; Addr: 17 place de la Collegiale, 87210 DORAT; Tel: 05 55 60 76 61</desc>
    <url/>
  </wpt>
  <wpt lat="44.931266" lon="2.986221">
    <name>Camping Municipal FONTBIELLE 2**</name>
    <sym>Camp</sym>
    <desc>Open: Juin-Septembre; Places: 60; Budget €/j: 5-10; Addr: le Bourg, 15260 FONTBIELLE; Tel: 04 71 23 84 08</desc>
    <url>http://www.officeneuveglise.wix.com/campingdefontbielle</url>
  </wpt>
  <wpt lat="46.536193" lon="3.743248">
    <name>Camping MUNICIPAL du gue de Loire 2*</name>
    <sym>Camp</sym>
    <desc>Open: 1 Juillet-30 Aout; Places: 33; Budget €/j: 15-20; Addr: Bords de Loire, 03290 DIOU ; Tel: 06 71 30 32 80 </desc>
    <url>http://www.valdebesbre.com</url>
  </wpt>
  <wpt lat="46.324172" lon="3.704495">
    <name>Camping MUNICIPAL la Grande Ouche</name>
    <sym>Camp</sym>
    <desc>Open: Avril-mi Septembre; Places: 8; Budget €/j: 5-10; Addr: Le Bourg, 03130 BERT; Tel: 04 70 99 08 39</desc>
    <url>http://www.lapalisse-tourisme.com/135_16_Campings.html</url>
  </wpt>
  <wpt lat="46.243486" lon="3.63935">
    <name>Camping MUNICIPAL de Lapalisse</name>
    <sym>Camp</sym>
    <desc>Open: Avril-Septembre; Places: 56; Budget €/j: 5-10; Addr: rue des Vignes, 03120 SAINT PRIX; Tel: 04 70 99 26 31</desc>
    <url>http://www.lapalisse-tourisme.com/135_16_Campings.html</url>
  </wpt>
  <wpt lat="44.858379" lon="2.307065">
    <name>Camping MUNICIPAL Saint Mamet la Salvetat 3*</name>
    <sym>Camp</sym>
    <desc>Open: Avril - Octobre; Places: 24; Budget €/j: 10-15; Addr: 15220 SAINT -MAMET LA SALVETAT; Tel: 04 71 64 75 21 </desc>
    <url>http://www.stmamet-lasalvetat.com/index.php/tourisme/camping</url>
  </wpt>
  <wpt lat="45.574774" lon="3.634565">
    <name>Camping MUNICIPAL Saviloisirs 3*</name>
    <sym>Camp</sym>
    <desc>Open: nc; Places: 19; Budget €/j: 10-15; Addr: 7 Place de la Liberte, 63600 SAINT AMANT ROCHE SAVINE ; Tel: 04 73 95 73 60</desc>
    <url>http://www.saviloisirs.com/le-camping.html</url>
  </wpt>
  <wpt lat="46.221712" lon="2.88331">
    <name>Camping MUNICIPAL les Marins</name>
    <sym>Camp</sym>
    <desc>Open: mi Juin - Aout; Places: 64; Budget €/j: 20-25; Addr: lac de Lapeyrousse, 63 LAPEYROUSSE; Tel: 04.73.93.60.00</desc>
    <url>http://www.63lapeyrouse.free.fr/hebergement/hebergement.htm</url>
  </wpt>
  <wpt lat="45.129288" lon="2.967725">
    <name>Camping MUNICIPAL Neussargues Moissac 3*</name>
    <sym>Camp</sym>
    <desc>Open: Juin-Aout; Places: 24; Budget €/j: 10-15; Addr: route de Murat, 15170 NEUSSARGUES MOISSAC; Tel: 04 71 20 50 21</desc>
    <url>http://www.neussargues-moissac.fr</url>
  </wpt>
  <wpt lat="44.706273" lon="2.207072">
    <name>Camping MUNICIPAL le VERT 3*</name>
    <sym>Camp</sym>
    <desc>Open: Mai - Septembre; Places: 40; Budget €/j: 15-20; Addr: Avenue du Stade, 15600 MAURS; Tel: 04 71 49 00 32 </desc>
    <url>http://www.campinglevert-maurs.fr</url>
  </wpt>
  <wpt lat="46.671468000000004" lon="2.904339">
    <name>Camping MUNICIPAL la Font Saint Julien</name>
    <sym>Camp</sym>
    <desc>Open: Avril - Octobre; Places: ...; Budget €/j: 10-15; Addr: la font Saint Julien, 03320 COULEUVRE; Tel: 04 70 66 10 45</desc>
    <url>http://www.allier-auvergne-tourisme.com/hebergements-allier/tous-les-hebergements-46-1/couleuvre/hotellerie-de-plein-air/camping-la-font-saint-julien/obt_HPAAUV000FS0009T.html</url>
  </wpt>
  <wpt lat="45.785272" lon="2.429395">
    <name>Camping MUNICIPAL de la Ramade</name>
    <sym>Camp</sym>
    <desc>Open: Juin * Septembre; Places: 29; Budget €/j: ...; Addr: la Ramade, 63620 GIAT; Tel: 04 73 21 76 80 </desc>
    <url>http://www.auvergne-tourisme.info/hotellerie-de-plein-air/giat/camping-municipal-de-la-ramade/tourisme-HPAAUV063FS0003P-1.html</url>
  </wpt>
  <wpt lat="45.659647" lon="2.972488">
    <name>Aire MUNICIPALE Camping Cars</name>
    <sym>Camp</sym>
    <desc>Open: Avril - Octobre; Places: 41; Budget €/j: 5-10; Addr: le Bourg, 63970 AYDAT ; Tel: 04 73 79 37 15</desc>
    <url>http://www.tourisme-lescheires.com/aire-de-camping-cars-hebergements-aydat-auvergne.html</url>
  </wpt>
  <wpt lat="45.753301" lon="2.566681">
    <name>Aire naturelle MUNICIPALE d Herment</name>
    <sym>Camp</sym>
    <desc>Open: mi Mai - mi Octobre; Places: ...; Budget €/j: 5-10; Addr: Route du Château d'Eau, 63470 HERMENT; Tel: 04 73 22 10 58 </desc>
    <url>http://www.planetepuydedome.com/hotellerie-de-plein-air/herment/aire-naturelle-d-herment/tourisme-HPAAUV063FS0000I-1.html</url>
  </wpt>
  <wpt lat="46.981819" lon="3.162968">
    <name>Camping MUNICIPAL DE NEVERS 3***</name>
    <sym>Camp</sym>
    <desc>Open: Avril-Septembre; Places: 73; Budget €/j: 15-20; Addr: 06 84 98 69 79; Tel: rue de la Jonction; 89290 NEVERS</desc>
    <url>http://www.campingnevers.com</url>
  </wpt>
  <wpt lat="47.662555" lon="3.704796">
    <name>Camping MUNICIPAL LE MOULIN JACQUOT 2**</name>
    <sym>Camp</sym>
    <desc>Open: Avril- mi Octobre; Places: 50; Budget €/j: 5-10; Addr: 89460 ACCOLAY; Tel: 03 86 81 56 48 </desc>
    <url>http://accolay.chez-alice.fr </url>
  </wpt>
  <wpt lat="47.785855" lon="3.588452">
    <name>Camping MUNICIPAL AUXERRE 3***</name>
    <sym>Camp</sym>
    <desc>Open: mi Avril- mi Septembre; Places: 160; Budget €/j: 15-20; Addr: 8, rue de Vaux; 89000 AUXERRE; Tel: 03 86 52 11 15</desc>
    <url>http://www.auxerre.com</url>
  </wpt>
  <wpt lat="47.929715" lon="3.518972">
    <name>Camping MUNICIPAL le Patis 2**</name>
    <sym>Camp</sym>
    <desc>Open: ns; Places: 30; Budget €/j: ns; Addr: Rue du port des fontaines, 89400 BONNARD; Tel: 03 86 73 26 25 </desc>
    <url>http://www.bourgogne-tourisme.com</url>
  </wpt>
  <wpt lat="47.533893" lon="3.6326980000000004">
    <name>Camping MUNICIPAL le PETIT PORT 1*</name>
    <sym>Camp</sym>
    <desc>Open: Avril-Septembre; Places: 100; Budget €/j: 10-15; Addr: Petit Port, 89660 CHATEL CENSOIR; Tel: 06.03.09.56.23</desc>
    <url>http://www.chatel-censoir.com</url>
  </wpt>
  <wpt lat="47.622971" lon="3.263787">
    <name>Camping MUNICIPAL LA COURTILLERIE 1*</name>
    <sym>Camp</sym>
    <desc>Open: ns; Places: 13; Budget €/j: 5-10; Addr: 89520 SAINTS en Puisaye; Tel: 03 86 45 55 72 </desc>
    <url>http://www.saints-en-puisaye.fr</url>
  </wpt>
  <wpt lat="47.588973" lon="3.653212">
    <name>Camping MUNICIPAL le PRE du ROI 2**</name>
    <sym>Camp</sym>
    <desc>Open: Mai-Aout; Places: 100; Budget €/j: ns; Addr: Au Pertuis des Bouchets, 89660 MAILLY LE CHATEAU; Tel: 03 86 81 44 85 </desc>
    <url>http://www.maillylechateau.fr</url>
  </wpt>
  <wpt lat="47.898621" lon="3.7566380000000006">
    <name>Camping MUNICIPAL LA NOUE MARROU 2**</name>
    <sym>Camp</sym>
    <desc>Open: Mai-Septembre; Places: 40; Budget €/j: 10-15; Addr: 89144 LIGNY LE CHATEL; Tel: 03 86 47 56 99</desc>
    <url>http://www.mairie-ligny-le-chatel-89.fr</url>
  </wpt>
  <wpt lat="48.284564" lon="3.552704">
    <name>Camping MUNICIPAL COURGENAY 1*</name>
    <sym>Camp</sym>
    <desc>Open: ns; Places: 100; Budget €/j: 5-10; Addr: 2 rue de Beaulieu, 89190 COURGENAY; Tel: 03 86 86 80 85</desc>
    <url>http://www.tourisme-yonne.com</url>
  </wpt>
  <wpt lat="47.776252" lon="4.163818">
    <name>Camping MUNICIPAL ANCY LE FRANC 1*</name>
    <sym>Camp</sym>
    <desc>Open: mi Juin-mi Septembre; Places: 30; Budget €/j: 5-10; Addr: 89160 ANCY LE FRANC; Tel: 03 86 75 13 21</desc>
    <url>http://www.pays-tonnerrois.fr</url>
  </wpt>
  <wpt lat="47.48032" lon="3.9125920000000005">
    <name>Camping MUNICIPAL SOUS ROCHES 3***</name>
    <sym>Camp</sym>
    <desc>Open: Avril-mi Octobre; Places: 100; Budget €/j: 15-20; Addr: 1 Rue sous roche, 89200 AVALLON; Tel: 03 86 34 10 39</desc>
    <url>http://www.campingsousroche.com</url>
  </wpt>
  <wpt lat="47.984292" lon="3.6131290000000003">
    <name>Camping MUNICIPAL L'ILE SAINT-MARTIN 2**</name>
    <sym>Camp</sym>
    <desc>Open: ns; Places: 40; Budget €/j: ns; Addr: Les Graviers, 89210 BRIENON SUR ARMANCON
; Tel: 03 86 43 00 67 </desc>
    <url>http://www.ville-brienon.fr/camping.htm</url>
  </wpt>
  <wpt lat="47.956536" lon="3.538542">
    <name>AIRE NATURELLE MUNICIPALE CHENY </name>
    <sym>Camp</sym>
    <desc>Open: ns; Places: ns; Budget €/j: ns; Addr: 89400 CHENY; Tel: </desc>
    <url/>
  </wpt>
  <wpt lat="47.798887" lon="4.086571">
    <name>Camping MUNICIPAL LA GRAVIERE DU MOULIN 2**</name>
    <sym>Camp</sym>
    <desc>Open: Avril-Septembre; Places: 30; Budget €/j: 5-10; Addr: 7, route de Frangey, 89160 LEZINNES; Tel: 03 86 75 68 67 </desc>
    <url>http://gravieredumoulin.lezinnes.fr/camping.php</url>
  </wpt>
  <wpt lat="47.460057" lon="3.768997">
    <name>Camping MUNICIPAL ST PERE 1*</name>
    <sym>Camp</sym>
    <desc>Open: Avril- Septembre; Places: 60; Budget €/j: 5-10; Addr: Rue du Gravier, 89450 ST PERE VEZELAY; Tel: 03 86 33 26 62 </desc>
    <url>http://saint-pere.fr/saint-pere-camping.htm</url>
  </wpt>
  <wpt lat="47.664462" lon="3.7339779999999996">
    <name>Camping MUNICIPAL LES COULLEMIERES 3***</name>
    <sym>Camp</sym>
    <desc>Open: Avril- Septembre; Places: 50; Budget €/j: 15-20; Addr: ; Tel: </desc>
    <url/>
  </wpt>
  <wpt lat="47.747" lon="2.881422">
    <name>Camping MUNICIPAL LES LANCIERES 1*</name>
    <sym>Camp</sym>
    <desc>Open: Mai - Septembre; Places: 45; Budget €/j: 5-10; Addr: ; Tel: </desc>
    <url/>
  </wpt>
  <wpt lat="47.599681" lon="3.760071">
    <name>Camping MUNICIPAL l ISLE ST JEAN 2**</name>
    <sym>Camp</sym>
    <desc>Open: mi Avril- mi Septembre; Places: 50; Budget €/j: 10-15; Addr: ; Tel: </desc>
    <url/>
  </wpt>
  <wpt lat="47.696939" lon="2.948456">
    <name>Camping MUNICIPAL la PEPINIERE 2**</name>
    <sym>Camp</sym>
    <desc>Open: ns; Places: 50; Budget €/j: ns; Addr: ; Tel: </desc>
    <url/>
  </wpt>
  <wpt lat="47.813097" lon="3.8060980000000004">
    <name>Camping MUNICIPAL LE SEREIN 2**</name>
    <sym>Camp</sym>
    <desc>Open: Juin - mi Septembre; Places: 43; Budget €/j: 10-15; Addr: ; Tel: </desc>
    <url/>
  </wpt>
  <wpt lat="47.519606" lon="3.53837">
    <name>Camping MUNICIPAL LES BERGES DE L'YONNE 2**</name>
    <sym>Camp</sym>
    <desc>Open: Mai - Septembre; Places: 22; Budget €/j: 15-20; Addr: ; Tel: </desc>
    <url/>
  </wpt>
  <wpt lat="48.183257" lon="3.288002">
    <name>Camping MUNICIPAL ENTRE DEUX VANNES 2**</name>
    <sym>Camp</sym>
    <desc>Open: mi Mai - mi Septembre; Places: 80; Budget €/j: 10-15; Addr: 191 avenue de Senigallia, 89100 SENS; Tel: 03 86 65 64 71 </desc>
    <url>http://www.office-de-tourisme-sens.com</url>
  </wpt>
  <wpt lat="47.586484" lon="4.004517">
    <name>Camping MUNICIPAL le Parc du Chateau 2*</name>
    <sym>Camp</sym>
    <desc>Open: Avril; Places: 40; Budget €/j: 10-15; Addr: 89440 L ISLE SUR SEREIN; Tel: 03 86 33 93 50</desc>
    <url>http://www.isle-sur-serein.fr  </url>
  </wpt>
  <wpt lat="47.639485" lon="3.074112">
    <name>Camping MUNICIPAL la CALANQUE 3***</name>
    <sym>Camp</sym>
    <desc>Open: mi Avril- Septembre; Places: 230; Budget €/j: 10-15; Addr: ; Tel: </desc>
    <url/>
  </wpt>
  <wpt lat="47.582779" lon="3.778052">
    <name>Camping MUNICIPAL ST MORE 2**</name>
    <sym>Camp</sym>
    <desc>Open: mi Mai- Septembre; Places: 30; Budget €/j: 10-15; Addr: ; Tel: </desc>
    <url/>
  </wpt>
  <wpt lat="47.859476" lon="3.9794540000000005">
    <name>C MUNICIPAL la CASCADE 2**</name>
    <sym>Camp</sym>
    <desc>Open: ns; Places: ns; Budget €/j: ns; Addr: ; Tel: </desc>
    <url/>
  </wpt>
  <wpt lat="48.285477" lon="3.201828">
    <name>Camping MUNICIPAL l ILE D AMOUR 1*</name>
    <sym>Camp</sym>
    <desc>Open: Avril- Septembre; Places: 158; Budget €/j: 10-15; Addr: 89140 PONT SUR YONNE; Tel: 03 86 67 03 62 </desc>
    <url>http://www.pontsuryonne.com/camping-municipal</url>
  </wpt>
  <wpt lat="47.506997" lon="4.172745">
    <name>Camping MUNICIPAL LES LIBELLULES 1*</name>
    <sym>Camp</sym>
    <desc>Open: ns; Places: ns; Budget €/j: ns; Addr: 21460 EPOISSES; Tel: </desc>
    <url/>
  </wpt>
  <wpt lat="47.521374" lon="5.114136">
    <name>Camping MUNICIPAL les CAPUCINS 2**</name>
    <sym>Camp</sym>
    <desc>Open: Juin - Septembre; Places: 40; Budget €/j: 5-10; Addr: 21120 IS SUR TILLE; Tel: 03 80 95 02 08</desc>
    <url>http://www.is-sur-tille.fr/camping-municipal </url>
  </wpt>
  <wpt lat="47.079475" lon="5.249405">
    <name>AIRE NATURELLE MUNICIPALE LOSNE</name>
    <sym>Camp</sym>
    <desc>Open: ns; Places: ns; Budget €/j: ns; Addr: ; Tel: </desc>
    <url/>
  </wpt>
  <wpt lat="47.596903" lon="5.08049">
    <name>Camping MUNICIPAL MAREY SUR TILLE 1*</name>
    <sym>Camp</sym>
    <desc>Open: ns; Places: 10; Budget €/j: ns; Addr: ; Tel: </desc>
    <url/>
  </wpt>
  <wpt lat="47.387193" lon="4.312134">
    <name>Camping MUNICIPAL PRECY SOUS THIL 3***</name>
    <sym>Camp</sym>
    <desc>Open: ns; Places: 60; Budget €/j: 10-15; Addr: Rue de l'Hôtel de Ville21390 PRECY SOUS THIL; Tel: 03 80 64 57 18</desc>
    <url/>
  </wpt>
  <wpt lat="47.779943" lon="4.855957">
    <name>Camping MUNICIPAL RECEY SUR OURCE 1*</name>
    <sym>Camp</sym>
    <desc>Open: ns; Places: 18; Budget €/j: 10-15; Addr: 21290 RECEY SUR OURCE; Tel: 03 80 81 02 06</desc>
    <url>http://www.cotedor-tourisme.com</url>
  </wpt>
  <wpt lat="47.561469" lon="5.449219">
    <name>Camping MUNICIPAL LE TROU D'ARGOT 1*</name>
    <sym>Camp</sym>
    <desc>Open: ns; Places: 30; Budget €/j: 10-15; Addr: 21610 MONTIGNY MORNAY ; Tel: 03 80 95 41 58</desc>
    <url>http://www.camping-du-trou-argot.com</url>
  </wpt>
  <wpt lat="47.632082" lon="4.332561">
    <name>Camping MUNICIPAL Les Treilles 3***</name>
    <sym>Camp</sym>
    <desc>Open: mi Mars- Octobre; Places: 80; Budget €/j: 15-20; Addr: Rue Michel Servet, 21500 MONTBARD; Tel: 03 80 92 69 50</desc>
    <url>http://www.montbard.com/camping.html</url>
  </wpt>
  <wpt lat="47.666312" lon="5.030365">
    <name>AIRE NATURELLE MUNICIPALE GRANCEY</name>
    <sym>Camp</sym>
    <desc>Open: ns; Places: 20; Budget €/j: ns; Addr: 21580 GRANCEY LE CHATEAU NEUVELLE; Tel: 03 80 75 60 30</desc>
    <url>http://www.cotedor-tourisme.com</url>
  </wpt>
  <wpt lat="47.543801" lon="4.452209">
    <name>Camping MUNICIPAL ALESIA 3***</name>
    <sym>Camp</sym>
    <desc>Open: Avril- mi Septembre; Places: 6; Budget €/j: 15-20; Addr: Rue du Docteur Roux, 21150 VENAREY LES LAUMES; Tel: 03 80 96 07 76 </desc>
    <url>http://www.venareyleslaumes.fr</url>
  </wpt>
  <wpt lat="47.390912" lon="4.542847">
    <name>Camping MUNICIPAL Saint NICOLAS 1*</name>
    <sym>Camp</sym>
    <desc>Open: Avril- Octobre; Places: 16; Budget €/j: 10-15; Addr: 21350 VITTEAUX; Tel: 03 80 49 60 87 </desc>
    <url>http://www.vitteaux.fr</url>
  </wpt>
  <wpt lat="47.505316" lon="4.118586">
    <name>Camping MUNICIPAL LE SEREIN </name>
    <sym>Camp</sym>
    <desc>Open: ns; Places: 30; Budget €/j: 10-15; Addr: Rue du Moulin de la Varenne, 21460 TOUTRY; Tel: 03 80 96 43 93 </desc>
    <url>http://www.cotedor-tourisme.com</url>
  </wpt>
  <wpt lat="47.283188" lon="4.795876">
    <name>Camping MUNICIPAL STE MARIE SUR OUCHE 1*</name>
    <sym>Camp</sym>
    <desc>Open: Avril- Octobre; Places: 18; Budget €/j: 10-15; Addr: Rue du Pré de Bain, 21410 STE MARIE SUR OUCHE; Tel: 03 80 23 62 30</desc>
    <url>http://www.saintemariesurouche.com</url>
  </wpt>
  <wpt lat="47.44016400000001" lon="4.788666000000001">
    <name>Camping MUNICIPAL ST SEINE L ABBAYE 1*</name>
    <sym>Camp</sym>
    <desc>Open: Mai- Septembre; Places: 30; Budget €/j: ns; Addr: Rue de la foire aux vaches, 21440 ST SEINE L ABBAYE; Tel: 03 80 35 00 09 </desc>
    <url>http://www.cotedor-tourisme.com</url>
  </wpt>
  <wpt lat="46.997583" lon="5.144348">
    <name>Camping MUNICIPAL la plage 1*</name>
    <sym>Camp</sym>
    <desc>Open: Mai -  Septembre; Places: 50; Budget €/j: 10-15; Addr: 21250 SEURRE; Tel: 03 80 20 49 22 </desc>
    <url>http://www.seurre.fr</url>
  </wpt>
  <wpt lat="47.58301" lon="5.183487">
    <name>Camping MUNICIPAL LES COURVELLES 1*</name>
    <sym>Camp</sym>
    <desc>Open: Mai - Septembre; Places: 20; Budget €/j: 10-15; Addr: Rue Henri Jevain, 21260 SELONGEY; Tel: 03 80 75 70 74</desc>
    <url>http://www.selongey.com</url>
  </wpt>
  <wpt lat="47.973835" lon="4.680176">
    <name>Camping MUNICIPAL RIEL LES EAUX </name>
    <sym>Camp</sym>
    <desc>Open: ns; Places: 18; Budget €/j: ns; Addr: 21570 RIEL LES EAUX; Tel: 03 80 93 72 76 </desc>
    <url>http://www.cotedor-tourisme.com</url>
  </wpt>
  <wpt lat="47.468079" lon="4.157038">
    <name>AIRE MUNICIPALE NATURELLE MONTBERTHAULT </name>
    <sym>Camp</sym>
    <desc>Open: ns; Places: ns; Budget €/j: 5-10; Addr: Pont du Moulin, 21460 MONTBERTHAULT; Tel: 03 80 96 44 36</desc>
    <url/>
  </wpt>
  <wpt lat="47.858555" lon="4.580097">
    <name>Camping MUNICIPAL LOUIS RIGOLY 2**</name>
    <sym>Camp</sym>
    <desc>Open: Avril- Septembre; Places: 50; Budget €/j: ns; Addr: Promenade St Vorles, 21400 CHATILLON SUR SEINE
; Tel: 03 80 91 03 05</desc>
    <url>http://www.mairie-chatillon-sur-seine.fr</url>
  </wpt>
  <wpt lat="47.101973" lon="4.672194000000001">
    <name>Camping MUNICIPAL des ISLES 2**</name>
    <sym>Camp</sym>
    <desc>Open: Mai - Septembre; Places: 70; Budget €/j: 10-15; Addr: 2 Allée de la gare , 21360 BLIGNY SUR OUCHE; Tel: 03.80.24.73.43</desc>
    <url>http://www.ville-bligny-sur-ouche.fr</url>
  </wpt>
  <wpt lat="47.032929" lon="4.839478">
    <name>Camping MUNICIPAL les 100 VIGNES 4****</name>
    <sym>Camp</sym>
    <desc>Open: mi Mars - Octobre; Places: 115; Budget €/j: 15-20; Addr: 10, rue Auguste Dubois, 21200 BEAUNE; Tel: 03 80 22 03 91</desc>
    <url>http://www.beaune.fr/spip.php?article78 </url>
  </wpt>