<?xml version="1.0"?>
<gpx xmlns="http://www.topografix.com/GPX/1/0" xmlns:xsi="http://www.w3.org/2001/XMLSchema-instance" xmlns:kml="http://www.opengis.net/kml/2.2" xmlns:gpx="http://www.topografix.com/GPX/1/0" version="1.0" creator="ViewRanger - http://www.viewranger.com" xsi:schemaLocation="http://www.topografix.com/GPX/1/0 http://www.topografix.com/GPX/1/0/gpx.xsd">
  <wpt lat="49.928074" lon="3.577731">
    <name>Camping Municipal Vadencourt</name>
    <sym>Camp</sym>
    <desc>Open: mai-Septembre; Places: ns; Budget €/j: 10-15; Addr: rue de Bovalon02120 VADENCOURT; Tel: 03 87 07 67 13</desc>
    <url>http://www.vadencourt.com/page4.html    </url>
  </wpt>
  <wpt lat="50.011738" lon="2.656202">
    <name>Camping Municipal le Velodrome 2**</name>
    <sym>Camp</sym>
    <desc>Open: Avril-Octobre; Places: 75; Budget €/j: 15-20; Addr: Avenue Henry Dunand80300 ALBERT; Tel: 03 64 62 22 53</desc>
    <url>http://www.camping-albert.com </url>
  </wpt>
  <wpt lat="49.384161" lon="3.349457">
    <name>Camping Municipal du Mail 2**</name>
    <sym>Camp</sym>
    <desc>Open: toute lannee; Places: 117; Budget €/j: 15-20; Addr: Avenue du mail 02200 Soissons; Tel: 03 23 74 52 69</desc>
    <url>http://goo.gl/7KgzVd</url>
  </wpt>
  <wpt lat="50.11191" lon="1.4580920000000002">
    <name>Camping Municipal ONIVAL 2*</name>
    <sym>Camp</sym>
    <desc>Open: mi Avril-mi Septembre; Places: 243; Budget €/j: 10-15; Addr: 80460 WOIGNARUE; Tel: 03 22 60 40 08</desc>
    <url>http://goo.gl/bXa30j</url>
  </wpt>
  <wpt lat="50.117544" lon="1.572375">
    <name>Camping Municipal les Aillots 2*</name>
    <sym>Camp</sym>
    <desc>Open: Avril-Septembre; Places: 52; Budget €/j: 15-20; Addr: Rue des Verolles80960 SAINT BLIMONT; Tel: 03 22 30 62 55</desc>
    <url>http://aillots.akeonet.com/</url>
  </wpt>
  <wpt lat="50.079534" lon="1.8233439999999999">
    <name>Camping Municipal les Portes de la Baie de Somme 2*</name>
    <sym>Camp</sym>
    <desc>Open: Avril-Septembre; Places: 66; Budget €/j: 15-20; Addr: Rue du Marais talsac, 80132 Mareuil Caubert; Tel: 03 22 31 62 37</desc>
    <url>http://www.camping-lesportesdelabaiedesomme.com/  </url>
  </wpt>
  <wpt lat="49.791904" lon="3.460693">
    <name>Camping MUNICIPALE de Ribemont </name>
    <sym>Camp</sym>
    <desc>Open: Mai-Septembre; Places: 25; Budget €/j: 5-10; Addr: 02240 Ribemont ; Tel: 03 23 63 71 30</desc>
    <url>http://mairieribemont.free.fr )</url>
  </wpt>
  <wpt lat="50.16112" lon="1.587701">
    <name>Camping MUNICIPAL le Marais 3*</name>
    <sym>Camp</sym>
    <desc>Open: Avril-Octobre; Places: 30; Budget €/j: 15-20; Addr: 24 bis rue du 11 Novembre, 80460 PENDE; Tel: 03 22 26 90 29</desc>
    <url>http://(http://www.tourisme-baiedesomme.fr/fr/9-hebergement/HPAPIC0800010546-le-marais.html   )</url>
  </wpt>
  <wpt lat="49.937555" lon="2.430648">
    <name>Camping MUNICIPAL du Marais 2*</name>
    <sym>Camp</sym>
    <desc>Open: Avril-Octobre; Places: 10 de passage; Budget €/j: 10-15; Addr: 1 rue du Marais80115 QUERRIEU; Tel: 03 22 40 16 09</desc>
    <url>http://goo.gl/wX4fAe</url>
  </wpt>
  <wpt lat="50.038951" lon="1.979578">
    <name>Camping MUNICIPAL la Peupleraie 2*</name>
    <sym>Camp</sym>
    <desc>Open: mi Mars-mi Novembre; Places: ns; Budget €/j: 10-15; Addr: 80510 LONG; Tel: 03 22 31 84 27</desc>
    <url>http://www.long.fr   )</url>
  </wpt>
  <wpt lat="49.666253000000005" lon="3.3623530000000006">
    <name>Camping MUNICIPAL Marais de la Fontaine</name>
    <sym>Camp</sym>
    <desc>Open: Avril - Septembre; Places: 26; Budget €/j: 10-15; Addr: Rue Vauban02800 LA FERE ; Tel: 03 23 56 82 94</desc>
    <url>http://www.ville-lafere.fr/?Tourisme )</url>
  </wpt>
  <wpt lat="49.772812" lon="2.167354">
    <name>Camping Municipal de Loeuilly 2*</name>
    <sym>Camp</sym>
    <desc>Open: Avril - Septembre; Places: 70; Budget €/j: 15-20; Addr: Rue du marais, 80160 Loeuilly; Tel: 03 22 38 13 88</desc>
    <url>http://www.camping-loeuilly.com/  </url>
  </wpt>
  <wpt lat="49.956301" lon="2.562518">
    <name>Camping MUNICIPAL les Marais de l Ancre 1*</name>
    <sym>Camp</sym>
    <desc>Open: Avril-Octobre; Places: 30 de passage; Budget €/j: ns; Addr: rue du marais, 80800 RIBEMONT SUR ANCRE; Tel: 03 22 40 61 63</desc>
    <url>http://www.somme-tourisme.com/  </url>
  </wpt>
  <wpt lat="49.936472" lon="2.724609">
    <name>Camping MUNICIPAL le Port</name>
    <sym>Camp</sym>
    <desc>Open: Janvier-Octobre; Places: 54; Budget €/j: ns; Addr: Place du Port,, 80240 BRAY SUR SOMME; Tel: 03 22 76 25 11</desc>
    <url>http://www.ville-braysursomme.fr/  )</url>
  </wpt>
  <wpt lat="49.8553609" lon="3.3099213">
    <name>Camping Municipal Saint Quentin</name>
    <sym>Camp</sym>
    <desc>Open: Juin-Septembre; Places: 54; Budget €/j: 10-15; Addr: Boulevard Jean Bouin , 02100 SAINT-QUENTIN ; Tel: 03 23 06 94 19</desc>
    <url>http://www.saint-quentin.fr/51-camping.htm    </url>
  </wpt>
</gpx>
