<?xml version="1.0"?>
<gpx creator="Matt Wallis" version="1.1" xmlns="http://www.topografix.com/GPX/1/1" xmlns:xsi="http://www.w3.org/2001/XMLSchema-instance" xsi:schemaLocation="http://www.topografix.com/GPX/1/1 http://www.topografix.com/GPX/1/1/gpx.xsd">
<wpt lat="46.32349" lon="6.96223">
  <name>De la Piscine - Aigle [&lt;51] &gt;+41244662660 (407m)</name>
  <sym>Triangle</sym>
</wpt>
<wpt lat="46.34615" lon="6.94148">
  <name>Clos de la George - Versvey &gt;+41244665828 (382m)</name>
  <sym>Triangle</sym>
</wpt>
<wpt lat="46.3553" lon="7.12705">
  <name>La Muree - Ormont-Dessus [&lt;51] &gt;+41216345284 (1109m)</name>
  <sym>Triangle</sym>
</wpt>
<wpt lat="46.3556" lon="6.8995">
  <name>Au Grand Bois - Chessel &gt;+41244814225 (377m)</name>
  <sym>Triangle</sym>
</wpt>
<wpt lat="46.35739" lon="6.87492">
  <name>Des Ravers - Les Evouettes [&lt;51] &gt;+41244816503 (405m)</name>
  <sym>Triangle</sym>
</wpt>
<wpt lat="46.37683" lon="6.91982">
  <name>Rennaz - Rennaz [&lt;51] &gt;+41219604041 (378m)</name>
  <sym>Triangle</sym>
</wpt>
<wpt lat="46.38269" lon="7.26332">
  <name>Heiti - Gsteig [&lt;51] &gt;+41337551197 (1217m)</name>
  <sym>Triangle</sym>
</wpt>
<wpt lat="46.3866" lon="6.8598">
  <name>Rive Bleue - Le Bouveret (01/04-12/10) &gt;+41244812161 -CCA(375m)</name>
  <sym>Triangle</sym>
</wpt>
<wpt lat="46.39256" lon="6.92683">
  <name>Les Bouleaux - Villeneuve [&lt;51] &gt;+41219601630 (374m)</name>
  <sym>Triangle</sym>
</wpt>
<wpt lat="46.39349" lon="6.89543">
  <name>Les Grangettes - Montreux &gt;+41219601503 (374m)</name>
  <sym>Triangle</sym>
</wpt>
<wpt lat="46.39525" lon="6.92149">
  <name>Les Horizons Bleus - Montreux &gt;+41219601547 (375m)</name>
  <sym>Triangle</sym>
</wpt>
<wpt lat="46.39681" lon="7.09961">
  <name>Cuizon - Les Mosses &gt;+41244912045 (1448m)</name>
  <sym>Triangle</sym>
</wpt>
<wpt lat="46.4465" lon="6.14356">
  <name>Les Cheseaux *** - St. Cergue [&lt;51] (01/01-31/12) &gt;+41223601898 (1094m)</name>
  <sym>Triangle</sym>
</wpt>
<wpt lat="46.46187" lon="6.34604">
  <name>Aux Vernes **** - Rolle (01/04-30/09) &gt;+41218251239 (376m)</name>
  <sym>Triangle</sym>
</wpt>
<wpt lat="46.46736" lon="7.12569">
  <name>Le Berceau - Chateau-d'Oex &gt;+41269246234 (906m)</name>
  <sym>Triangle</sym>
</wpt>
<wpt lat="46.47038" lon="6.80995">
  <name>La Pichette ** - Corseaux (01/04-30/09) &gt;+41219210997 (377m)</name>
  <sym>Triangle</sym>
</wpt>
<wpt lat="46.48111" lon="7.2733">
  <name>Bellerive - Gstaad (01/01-31/12) &gt;+41337446330 -CCA(1024m)</name>
  <sym>Triangle</sym>
</wpt>
<wpt lat="46.48738" lon="7.26406">
  <name>Beim Kappeli - Saanen &gt;+41337446191 (1016m)</name>
  <sym>Triangle</sym>
</wpt>
<wpt lat="46.48968" lon="6.73753">
  <name>Moratel ** - Cully (20/03-20/10) &gt;+41217991914 (375m)</name>
  <sym>Triangle</sym>
</wpt>
<wpt lat="46.50442" lon="6.48899">
  <name></name>
  <sym>Triangle</sym>
</wpt>
<wpt lat="46.50924" lon="6.54016">
  <name>Naturist - Club Leman - Lausanne +41218018398 (374m)</name>
  <sym>Triangle</sym>
</wpt>
<wpt lat="46.51725" lon="6.59777">
  <name>Vidy***** - Lausanne (01/01-31/12) +41216225000 (380m)</name>
  <sym>Triangle</sym>
</wpt>
<wpt lat="46.52541" lon="6.9184">
  <name>Le Bivouac **** - Les Paccots (01/05-30/09) +41219487849 (893m)</name>
  <sym>Triangle</sym>
</wpt>
<wpt lat="46.5287" lon="6.76549">
  <name>Des Cases *** - Forel (01/01-31/12) +41217811464 (686m)</name>
  <sym>Triangle</sym>
</wpt>
<wpt lat="46.54973" lon="6.37313">
  <name>BoisGentil**** - Ballens (01/04-31/10) +41218095120 (717m)</name>
  <sym>Triangle</sym>
</wpt>
<wpt lat="46.5501" lon="6.5399">
  <name>La Venoge *** - Echandens [51] (01/04-31/10) +41217010319 (394m)</name>
  <sym>Triangle</sym>
</wpt>
<wpt lat="46.55756" lon="7.08536">
  <name></name>
  <sym>Triangle</sym>
</wpt>
<wpt lat="46.59515" lon="7.08069">
  <name>Les Sapins *** - Epagny (01/04-31/10) +41269129575 (706m)</name>
  <sym>Triangle</sym>
</wpt>
<wpt lat="46.62651" lon="6.2529">
  <name>Le Rocheray - Le Lieu [51] (01/01-31/12) +41218455174 (1023m)</name>
  <sym>Triangle</sym>
</wpt>
<wpt lat="46.66057" lon="6.79134">
  <name>Du Grand Pre - Moudon +41219052311 (517m)</name>
  <sym>Triangle</sym>
</wpt>
<wpt lat="46.66227" lon="7.2732">
  <name>Seeweid - Schwarzsee [51] +41264121158 (1056m)</name>
  <sym>Triangle</sym>
</wpt>
<wpt lat="46.6737" lon="7.0249">
  <name>La Foret ***** - Sorens (01/01-31/12) +41269151882 (1022m)</name>
  <sym>Triangle</sym>
</wpt>
<wpt lat="46.67521" lon="7.0852">
  <name>Du Lac *** - Gumefens (01/07-31/08) +41269152162 (683m)</name>
  <sym>Triangle</sym>
</wpt>
<wpt lat="46.69033" lon="6.4652">
  <name>Le Nozon - Envy +41244531370 (736m)</name>
  <sym>Triangle</sym>
</wpt>
<wpt lat="46.71061" lon="6.37471">
  <name>Pre Sous Ville - Vallorbe [51] +41218432309 (753m)</name>
  <sym>Triangle</sym>
</wpt>
<wpt lat="46.73595" lon="6.53315">
  <name></name>
  <sym>Triangle</sym>
</wpt>
<wpt lat="46.73794" lon="7.1969">
  <name>Le Mont ** - Montecu [51] (01/01-31/12) +41264131817 (786m)</name>
  <sym>Triangle</sym>
</wpt>
<wpt lat="46.75233" lon="7.3002">
  <name>Fullmattli - Plaffeien [51] +41264190409 (803m)</name>
  <sym>Triangle</sym>
</wpt>
<wpt lat="46.78477" lon="6.64869">
  <name>Des Iris - Yverdon +41244251089 (431m)</name>
  <sym>Triangle</sym>
</wpt>
<wpt lat="46.80288" lon="6.63422">
  <name>Le Pecos - Grandson +41244454969 (433m)</name>
  <sym>Triangle</sym>
</wpt>
<wpt lat="46.80346" lon="6.71749">
  <name>Pointe d'Yvonand - Yvonand +41244301655 (431m)</name>
  <sym>Triangle</sym>
</wpt>
<wpt lat="46.80451" lon="6.73856">
  <name>La Menthue - Yvonand +41244301818 (433m)</name>
  <sym>Triangle</sym>
</wpt>
<wpt lat="46.81085" lon="6.94568">
  <name>Piscine - Payerne +41266604322 (485m)</name>
  <sym>Triangle</sym>
</wpt>
<wpt lat="46.82017" lon="6.67084">
  <name>Les Pins - Corcelettes +41244450705 (435m)</name>
  <sym>Triangle</sym>
</wpt>
<wpt lat="46.84249" lon="6.55989">
  <name>Les Cluds - Bullet [51] +41244541440 (1210m)</name>
  <sym>Triangle</sym>
</wpt>
<wpt lat="46.85605" lon="6.84846">
  <name>Nouvelle Plage - Estavayer le Lac +41266631693 (432m)</name>
  <sym>Triangle</sym>
</wpt>
<wpt lat="46.86007" lon="6.86343">
  <name>La Ferme de la Corbiere - Estavayer-Le-Lac [51] +41266633619 (469m)</name>
  <sym>Triangle</sym>
</wpt>
<wpt lat="46.87835" lon="7.19136">
  <name>Schiffenensee **** - Dudingen (01/04-31/10) +41264931917 (548m)</name>
  <sym>Triangle</sym>
</wpt>
<wpt lat="46.89043" lon="6.90107">
  <name>Du Chevroux - Chevroux [51] +41266671445 (432m)</name>
  <sym>Triangle</sym>
</wpt>
<wpt lat="46.90351" lon="7.04918">
  <name>Port-Plage - Avenches +41266751750 (436m)</name>
  <sym>Triangle</sym>
</wpt>
<wpt lat="46.90634" lon="6.57512">
  <name>Val de Travers - Fleurier [51] +41328614262 (745m)</name>
  <sym>Triangle</sym>
</wpt>
<wpt lat="46.9136" lon="7.03399">
  <name>Salavaux Plage - Bellerive +41266771476 (433m)</name>
  <sym>Triangle</sym>
</wpt>
<wpt lat="46.92079" lon="6.95508">
  <name>La Nacelle - Port Alban +41266772040 (424m)</name>
  <sym>Triangle</sym>
</wpt>
<wpt lat="46.93982" lon="6.85091">
  <name>Petit-Cortaillod-plage - Cortaillod [51] +41328414031 (432m)</name>
  <sym>Triangle</sym>
</wpt>
<wpt lat="46.94288" lon="7.13378">
  <name>Lowenberg - Muntelier +41797767480 (433m)</name>
  <sym>Triangle</sym>
</wpt>
<wpt lat="46.96041" lon="7.02827">
  <name>Le Chablais - Avenches +41266773277 (431m)</name>
  <sym>Triangle</sym>
</wpt>
<wpt lat="46.96776" lon="6.87002">
  <name>Paradis Plage - Colombier +41328412446 (436m)</name>
  <sym>Triangle</sym>
</wpt>
<wpt lat="46.9746" lon="7.09571">
  <name>Les 3 Lacs - Sugiez +41266731993 (432m)</name>
  <sym>Triangle</sym>
</wpt>
<wpt lat="47.00155" lon="7.04045">
  <name>Fanel - Gampelen +41323132333 (434m)</name>
  <sym>Triangle</sym>
</wpt>
<wpt lat="47.00545" lon="7.01931">
  <name>De la Tene - Marin-Epagnier +41327537340 (435m)</name>
  <sym>Triangle</sym>
</wpt>
<wpt lat="47.00697" lon="7.02735">
  <name>Naturist - Die Neue Zeit - Gampelen +41323134555 (431m)</name>
  <sym>Triangle</sym>
</wpt>
<wpt lat="47.04537" lon="7.0951">
  <name>Mon Plaisir - Erlach [51] +41323381358 (437m)</name>
  <sym>Triangle</sym>
</wpt>
<wpt lat="47.04649" lon="7.09807">
  <name>Gemeinde Erlach - Erlach +41323381646 (431m)</name>
  <sym>Triangle</sym>
</wpt>
<wpt lat="47.05252" lon="6.75987">
  <name>La Belle Verte - Le Locle [51] +41329317493 (1027m)</name>
  <sym>Triangle</sym>
</wpt>
<wpt lat="47.05257" lon="7.06993">
  <name>Camp des Peches - Le Landeron (01/04-15/10) +41327512900 -CCA(429m)</name>
  <sym>Triangle</sym>
</wpt>
<wpt lat="47.06038" lon="7.08382">
  <name>Bellerive - Le Landeron +41327512762 (432m)</name>
  <sym>Triangle</sym>
</wpt>
<wpt lat="47.06041" lon="7.08855">
  <name>Plage - La Neuveville +41327516762 (431m)</name>
  <sym>Triangle</sym>
</wpt>
<wpt lat="47.06606" lon="6.69936">
  <name>Lac des Brenets - Les Brenets +41329321618 (788m)</name>
  <sym>Triangle</sym>
</wpt>
<wpt lat="47.06679" lon="6.69847">
  <name>De la Fontaine - Les Brenets [51] +41329321618 (775m)</name>
  <sym>Triangle</sym>
</wpt>
<wpt lat="47.08557" lon="7.11727">
  <name>Preles - Ligerz +41327512900 (808m)</name>
  <sym>Triangle</sym>
</wpt>
<wpt lat="47.08615" lon="7.07082">
  <name>Fraso Ranch - Lignieres (24/12-31/10) +41327514616 -CCA(792m)</name>
  <sym>Triangle</sym>
</wpt>
<wpt lat="47.09334" lon="6.83593">
  <name>Bois du Couvent - La Chaux-de-Fonds +41792405039 (1073m)</name>
  <sym>Triangle</sym>
</wpt>
<wpt lat="47.09355" lon="7.21068">
  <name>Lindenhof - Sutz-Lattrigen [51] +41323971077 (455m)</name>
  <sym>Triangle</sym>
</wpt>
<wpt lat="47.10927" lon="7.2203">
  <name>Sutz - Sutz-Lattrigen [51] +41323971345 (433m)</name>
  <sym>Triangle</sym>
</wpt>
<wpt lat="47.12061" lon="6.89309">
  <name>La Cibourg - La Chaux de Fonds +41329683937 (1070m)</name>
  <sym>Triangle</sym>
</wpt>
<wpt lat="47.21188" lon="7.03446">
  <name>Les Cerneux - Les Breuleux +41324869666 (1007m)</name>
  <sym>Triangle</sym>
</wpt>
<wpt lat="47.22781" lon="7.18425">
  <name>De Belfond - Tavannes [51] +41324811763 (837m)</name>
  <sym>Triangle</sym>
</wpt>
<wpt lat="47.25289" lon="7.01968">
  <name>Sous-la-Neuvevie - Saignelegier [51] +41329511082 (954m)</name>
  <sym>Triangle</sym>
</wpt>
<wpt lat="47.26565" lon="6.95067">
  <name>Municipal - Goumois [51] +41329512707 (498m)</name>
  <sym>Triangle</sym>
</wpt>
<wpt lat="47.3339" lon="7.1413">
  <name>Tariche - St. Ursanne [51] (15/03-15/11) +41324334619 (446m)</name>
  <sym>Triangle</sym>
</wpt>
<wpt lat="47.34971" lon="7.08947">
  <name>Moulin du Doubs - Ocourt +41324613119 (427m)</name>
  <sym>Triangle</sym>
</wpt>
<wpt lat="47.35278" lon="7.17287">
  <name>Kohler - Montmelon-Dessous [51] +41324613267 (491m)</name>
  <sym>Triangle</sym>
</wpt>
<wpt lat="47.35862" lon="6.91622">
  <name>Les Grottes - Reclere [51] +41324766155 (661m)</name>
  <sym>Triangle</sym>
</wpt>
<wpt lat="47.36571" lon="7.16742">
  <name>St-Ursanne - St-Ursanne [51] +41792512432 (438m)</name>
  <sym>Triangle</sym>
</wpt>
<wpt lat="47.40294" lon="7.13685">
  <name>Moulin de la Terre - Courgenay [51] +41324711716 (506m)</name>
  <sym>Triangle</sym>
</wpt>
<wpt lat="47.41682" lon="7.08834">
  <name>De l'Allaine - Porrentruy [51] +41324669330 (430m)</name>
  <sym>Triangle</sym>
</wpt>
</gpx>
