<?xml version="1.0"?>
<gpx creator="Matt Wallis" version="1.1" xmlns="http://www.topografix.com/GPX/1/1" xmlns:xsi="http://www.w3.org/2001/XMLSchema-instance" xsi:schemaLocation="http://www.topografix.com/GPX/1/1 http://www.topografix.com/GPX/1/1/gpx.xsd">
<wpt lat="46.32415" lon="3.70996">
  <name>La Grande Ouche - Bert (3) [&lt;51] &gt;+33470996090 (321m)</name>
  <sym>Triangle</sym>
</wpt>
<wpt lat="46.32437" lon="3.05527">
  <name>Municipal** - Voussac [&lt;51] (01/06-30/09) &gt;+33470423047 (458m)</name>
  <sym>Triangle</sym>
</wpt>
<wpt lat="46.32444" lon="3.5938">
  <name>Municipal Plan d'eau - Trezelles (3) [&lt;51] &gt;+33648722834 (257m)</name>
  <sym>Triangle</sym>
</wpt>
<wpt lat="46.32692" lon="6.40221">
  <name>Aire naturelle l'Oree des Bois - Sciez (74) [&lt;51] &gt;+33450727831 (463m)</name>
  <sym>Triangle</sym>
</wpt>
<wpt lat="46.32987" lon="3.58646">
  <name>La Terrasse - Trezelles (3) [&lt;51] &gt;+33470557367 (254m)</name>
  <sym>Triangle</sym>
</wpt>
<wpt lat="46.33056" lon="6.32519">
  <name>Le Nant des Mules - Massongy (74) [&lt;51] &gt;+33450942124 (406m)</name>
  <sym>Triangle</sym>
</wpt>
<wpt lat="46.33068" lon="4.8434">
  <name>Municipal*** - Macon (15/03-31/10) &gt;+33385381622 (173m)</name>
  <sym>Triangle</sym>
</wpt>
<wpt lat="46.33164" lon="5.1528">
  <name>Ferme Equestre - Malafretaz (1) [&lt;51] &gt;+33474308119 (194m)</name>
  <sym>Triangle</sym>
</wpt>
<wpt lat="46.33282" lon="6.3878">
  <name>Le Leman - Sciez (74) [&lt;51] &gt;+33450727251 (402m)</name>
  <sym>Triangle</sym>
</wpt>
<wpt lat="46.33416" lon="6.06729">
  <name>Municipal Les Genets - Gex (1) &gt;+33450428457 (581m)</name>
  <sym>Triangle</sym>
</wpt>
<wpt lat="46.33658" lon="4.38242">
  <name></name>
  <sym>Triangle</sym>
</wpt>
<wpt lat="46.33675" lon="5.62719">
  <name>Municipal Sous le Moulin - Condes (39) +33474758228 (306m)</name>
  <sym>Triangle</sym>
</wpt>
<wpt lat="46.33717" lon="4.61447">
  <name>Intercommunal du Lac de St.Point Lamartine - Saint Point Lamartine (71) +33385505231 (339m)</name>
  <sym>Triangle</sym>
</wpt>
<wpt lat="46.33918" lon="5.13657">
  <name>La Plaine Tonique**** - Montrevel-en-Bresse (1) (15/04-20/09) +33474308052 -CCA(192m)</name>
  <sym>Triangle</sym>
</wpt>
<wpt lat="46.33987" lon="6.39251">
  <name>Brise du Leman - Sciez (74) +33450725910 (375m)</name>
  <sym>Triangle</sym>
</wpt>
<wpt lat="46.34064" lon="6.39657">
  <name>La Renouillere - Sciez (74) +33450727339 (384m)</name>
  <sym>Triangle</sym>
</wpt>
<wpt lat="46.34094" lon="6.39718">
  <name>Le Chatelet - Sciez (74) +33450725260 (384m)</name>
  <sym>Triangle</sym>
</wpt>
<wpt lat="46.34131" lon="5.6306">
  <name>Les Cyclamens - Chancia (1) +33474758214 (311m)</name>
  <sym>Triangle</sym>
</wpt>
<wpt lat="46.34161" lon="6.3973">
  <name>Le Grand Foc - Sciez (74) +33450726270 (384m)</name>
  <sym>Triangle</sym>
</wpt>
<wpt lat="46.34283" lon="5.64328">
  <name>Le Lac De Coiselet - Dortan (1) +33474758634 (308m)</name>
  <sym>Triangle</sym>
</wpt>
<wpt lat="46.34394" lon="6.28413">
  <name>Relais du Leman - Douvaine (74) +33450947111 (409m)</name>
  <sym>Triangle</sym>
</wpt>
<wpt lat="46.34562" lon="6.3581">
  <name>La Pinede - Excenevex (74) (15/04-15/09) +33450728505 -CCpg287-CCA(378m)</name>
  <sym>Triangle</sym>
</wpt>
<wpt lat="46.34674" lon="6.60856">
  <name>Municipal de l'Essert - Vinzier (74) [51] +33450766119 (913m)</name>
  <sym>Triangle</sym>
</wpt>
<wpt lat="46.35153" lon="6.40955">
  <name>Le Lac - Anthy sur Leman (74) +33450723658 (403m)</name>
  <sym>Triangle</sym>
</wpt>
<wpt lat="46.3521" lon="3.51669">
  <name>Sainte Marie - Treteau (3) [51] +33470348271 (259m)</name>
  <sym>Triangle</sym>
</wpt>
<wpt lat="46.35317" lon="3.79188">
  <name>Municipal - Le Donjon (3) [51] +33470995025 (304m)</name>
  <sym>Triangle</sym>
</wpt>
<wpt lat="46.35687" lon="6.45342">
  <name>Le Morcy - Thonon les Bains (74) +33682275150 (430m)</name>
  <sym>Triangle</sym>
</wpt>
<wpt lat="46.35736" lon="6.4725">
  <name>Le Lac Noir - Thonon les Bains (74) +33450260728 (462m)</name>
  <sym>Triangle</sym>
</wpt>
<wpt lat="46.35905" lon="6.34956">
  <name>Le Chant d'Oiseau - Excenevex (74) [51] +33549050141 (391m)</name>
  <sym>Triangle</sym>
</wpt>
<wpt lat="46.3596" lon="2.99245">
  <name>La Petite Valette - Sazeret (3) (01/05-30/09) +33470076457 -BD_FR-J.045(485m)</name>
  <sym>Triangle</sym>
</wpt>
<wpt lat="46.35985" lon="6.34909">
  <name>Bellevue - Excenevex (74) +33450728367 (391m)</name>
  <sym>Triangle</sym>
</wpt>
<wpt lat="46.36366" lon="4.47459">
  <name>Le Village des Meuniers - Dompierre les Ormes (71) (15/03-01/11) +33385503660 -CCA(448m)</name>
  <sym>Triangle</sym>
</wpt>
<wpt lat="46.36708" lon="2.95242">
  <name>La Ferme La Charviere* - St. Priest en Murat [51] (01/01-31/12) +33470073824 (420m)</name>
  <sym>Triangle</sym>
</wpt>
<wpt lat="46.36811" lon="6.32973">
  <name>Mathieu Le Leman II - Yvoire (74) +33450728496 (400m)</name>
  <sym>Triangle</sym>
</wpt>
<wpt lat="46.36812" lon="6.32809">
  <name>Mathieu Le Leman I - Yvoire (74) +33450728431 (398m)</name>
  <sym>Triangle</sym>
</wpt>
<wpt lat="46.37109" lon="6.55057">
  <name>La Prairie - Champanges (74) +33450810623 (704m)</name>
  <sym>Triangle</sym>
</wpt>
<wpt lat="46.37158" lon="5.87237">
  <name>Municipal Du Martinet - Saint Claude (39) (01/04-30/09) +33384450040 -CCA(430m)</name>
  <sym>Triangle</sym>
</wpt>
<wpt lat="46.375" lon="6.12139">
  <name>Indigo Le Fleutron - Divonne les Bains (1) (01/05-12/10) +33450200195 -CCA(563m)</name>
  <sym>Triangle</sym>
</wpt>
<wpt lat="46.37718" lon="6.62054">
  <name>Le Pre Bandaz - Saint Paul en Chablais (74) [51] +33450753942 (834m)</name>
  <sym>Triangle</sym>
</wpt>
<wpt lat="46.37778" lon="2.8778">
  <name>Le Petit Chaumont - Saint Priest en Murat (3) [51] +33470074744 (310m)</name>
  <sym>Triangle</sym>
</wpt>
<wpt lat="46.38082" lon="3.03765">
  <name>Municipal** - Deux Chaises [51] (25/03-15/10) +33470471233 (456m)</name>
  <sym>Triangle</sym>
</wpt>
<wpt lat="46.38177" lon="3.59302">
  <name>Municipal - Jaligny sur Besbre (3) +33470347150 (244m)</name>
  <sym>Triangle</sym>
</wpt>
<wpt lat="46.38368" lon="2.92823">
  <name>Le Tournesol - Chappes (3) [51] +33470029703 (374m)</name>
  <sym>Triangle</sym>
</wpt>
<wpt lat="46.38983" lon="5.66063">
  <name>Les Cypres - Lect (39) [51] +33384484018 (367m)</name>
  <sym>Triangle</sym>
</wpt>
<wpt lat="46.39393" lon="6.53084">
  <name>Le Grand Pre - Publier (74) +33450700045 (381m)</name>
  <sym>Triangle</sym>
</wpt>
<wpt lat="46.39416" lon="6.52785">
  <name>Les Huttins - Publier (74) +33450700309 (381m)</name>
  <sym>Triangle</sym>
</wpt>
<wpt lat="46.39684" lon="5.44998">
  <name>Municipal Saint Julien - Saint Julien (39) [51] +33384854237 (352m)</name>
  <sym>Triangle</sym>
</wpt>
<wpt lat="46.39688" lon="4.79716">
  <name>Naturist - Du Soleil de Macon Laize - Laize (71) +33385369950 (228m)</name>
  <sym>Triangle</sym>
</wpt>
<wpt lat="46.39909" lon="6.66486">
  <name>Les Myosotis - Lugrin (74) +33450760759 (464m)</name>
  <sym>Triangle</sym>
</wpt>
<wpt lat="46.39925" lon="6.50402">
  <name>Saint Disdille - Thonon les Bains (74) (01/04-30/09) +33450711411 -CCA(383m)</name>
  <sym>Triangle</sym>
</wpt>
<wpt lat="46.40062" lon="6.64676">
  <name>La Vieille Eglise - Lugrin (74) (12/04-11/10) +33450760195 -CCpg286-CCA(440m)</name>
  <sym>Triangle</sym>
</wpt>
<wpt lat="46.40272" lon="3.31473">
  <name>La Courtine - Chatel De Neuvre (3) [51] +33624930135 (223m)</name>
  <sym>Triangle</sym>
</wpt>
<wpt lat="46.4028" lon="6.67699">
  <name>Le Rys - Lugrin (74) +33450760575 (440m)</name>
  <sym>Triangle</sym>
</wpt>
<wpt lat="46.4039" lon="3.70234">
  <name>Aire naturelle Municipale - Saint Leon (3) [51] +33470421557 (419m)</name>
  <sym>Triangle</sym>
</wpt>
<wpt lat="46.41308" lon="3.3184">
  <name>Deneuvre - Chatel De Neuvre (3) (01/04-30/09) +33470420451 -CCA(218m)</name>
  <sym>Triangle</sym>
</wpt>
<wpt lat="46.41528" lon="3.06107">
  <name>Intercommunal* - Le Montet [51] (15/05-15/09) +33470471202 (448m)</name>
  <sym>Triangle</sym>
</wpt>
<wpt lat="46.42031" lon="5.72395">
  <name>La Petite Montagne - Moirans en Montagne (39) (12/04-16/09) +33384423498 (637m)</name>
  <sym>Triangle</sym>
</wpt>
<wpt lat="46.42223" lon="5.09209">
  <name>Municipal du Coq - Mantenay Montlin (1) [51] +33474526691 (181m)</name>
  <sym>Triangle</sym>
</wpt>
<wpt lat="46.42944" lon="4.93329">
  <name>Champ d' Ete - Pont de Vaux (01) +33385239610 -CCA(173m)</name>
  <sym>Triangle</sym>
</wpt>
<wpt lat="46.43078" lon="4.66796">
  <name>Municipal Saint Vital - Cluny (71) +33385590834 (238m)</name>
  <sym>Triangle</sym>
</wpt>
<wpt lat="46.43514" lon="3.06611">
  <name>A la Ferme Le Bois de l'Espau - Tronget (3) [51] +33470473804 (426m)</name>
  <sym>Triangle</sym>
</wpt>
<wpt lat="46.43554" lon="4.82473">
  <name>Le Raisin D'Or - Clesse (71) +33385331399 (311m)</name>
  <sym>Triangle</sym>
</wpt>
<wpt lat="46.43897" lon="4.76213">
  <name>Les Grottes** - Aze (01/04-30/09) +33385333648 (251m)</name>
  <sym>Triangle</sym>
</wpt>
<wpt lat="46.43963" lon="4.28194">
  <name>Municipal - Charolles (71) +33385240490 (283m)</name>
  <sym>Triangle</sym>
</wpt>
<wpt lat="46.44467" lon="4.9806">
  <name>Les Ripettes - Chavannes sur Reyssouze (1) (01/04-30/09) +33385306658 -CCA(212m)</name>
  <sym>Triangle</sym>
</wpt>
<wpt lat="46.44712" lon="4.89893">
  <name>Aux Rives du Soleil*** - Pont de Vaux (1) (19/04-15/10) +33385303365 -CCA-BD_FR-J.036(171m)</name>
  <sym>Triangle</sym>
</wpt>
<wpt lat="46.45038" lon="6.04676">
  <name>Les 3 Oiseaux - Premanon (39) +33384607874 (1137m)</name>
  <sym>Triangle</sym>
</wpt>
<wpt lat="46.4517" lon="5.18951">
  <name>Municipal Mepillat* - St. Nizier le Bouchoux (01/04-30/09) +33474529724 -CCpg280(211m)</name>
  <sym>Triangle</sym>
</wpt>
<wpt lat="46.45462" lon="2.9521">
  <name>A la ferme Les Busserolles - Buxieres les Mines (3) [51] +33634960903 (295m)</name>
  <sym>Triangle</sym>
</wpt>
<wpt lat="46.45467" lon="2.9679">
  <name>Le Boucher - Buxieres les Mines (3) [51] +33646226743 (360m)</name>
  <sym>Triangle</sym>
</wpt>
<wpt lat="46.45555" lon="2.9179">
  <name>Naturist - Soleil du Bourbonnais - Buxiereres-Les-Mines (3) +33470660304 (305m)</name>
  <sym>Triangle</sym>
</wpt>
<wpt lat="46.45741" lon="4.10483">
  <name>Le Mambre - Paray le Monial (71) (03/05-04/10) +33385888920 -CCpg344-CCA-BD_FR-J.042(238m)</name>
  <sym>Triangle</sym>
</wpt>
<wpt lat="46.46004" lon="5.25758">
  <name>Aire Naturelle Terre Ferme - Condal (71) [51] +33385766257 (215m)</name>
  <sym>Triangle</sym>
</wpt>
<wpt lat="46.46849" lon="5.68856">
  <name>Trelachaume - Maisod (39) +33384420326 (525m)</name>
  <sym>Triangle</sym>
</wpt>
<wpt lat="46.46891" lon="3.0214">
  <name>Le Petit Moulin - Saint-Hilaire (3) [51] (01/01-31/12) +33963640943 (378m)</name>
  <sym>Triangle</sym>
</wpt>
<wpt lat="46.47238" lon="4.15881">
  <name>Municipal - Volesvres (71) [51] +33385814233 (271m)</name>
  <sym>Triangle</sym>
</wpt>
<wpt lat="46.4771" lon="4.80912">
  <name>Municipal Saint Pierre - Lugny (71) [51] +33385332196 (272m)</name>
  <sym>Triangle</sym>
</wpt>
<wpt lat="46.47986" lon="3.9677">
  <name>Municipal La Chevrette - Digoin (71) (01/04-10/10) +33385531149 -CCA(225m)</name>
  <sym>Triangle</sym>
</wpt>
<wpt lat="46.48031" lon="4.41302">
  <name>La Tulipe Fioolet - Saint Bonnet de Joux (71) [51] +33385247863 (398m)</name>
  <sym>Triangle</sym>
</wpt>
<wpt lat="46.4837" lon="5.46532">
  <name>Municipal - Loisia (39) [51] +33384445418 (377m)</name>
  <sym>Triangle</sym>
</wpt>
<wpt lat="46.48398" lon="5.94855">
  <name>Le Baptaillard - Longchaumois (39) +33384606234 (891m)</name>
  <sym>Triangle</sym>
</wpt>
<wpt lat="46.48423" lon="2.8276">
  <name>Municipal de Clairval** - Cosne d'Allier [51] (01/05-15/09) +33470075169 (227m)</name>
  <sym>Triangle</sym>
</wpt>
<wpt lat="46.48762" lon="4.91259">
  <name>National 6*** - Uchizy (71) (01/04-30/09) +33385405390 -CCA(172m)</name>
  <sym>Triangle</sym>
</wpt>
<wpt lat="46.48866" lon="2.91166">
  <name>Les Muriats - Vieure (3) [51] +33470072847 (261m)</name>
  <sym>Triangle</sym>
</wpt>
<wpt lat="46.49145" lon="3.02058">
  <name>Municipal Saint Hilaire - Saint Hilaire (3) [51] +33470665078 (313m)</name>
  <sym>Triangle</sym>
</wpt>
<wpt lat="46.49719" lon="5.325">
  <name></name>
  <sym>Triangle</sym>
</wpt>
<wpt lat="46.50301" lon="2.90803">
  <name>Base De Loisirs De La Borde - Vieure (3) +33470020446 (255m)</name>
  <sym>Triangle</sym>
</wpt>
<wpt lat="46.50787" lon="5.22262">
  <name>La Ferme des Maziers - Le Bouchat (71) [51] +33385746714 (204m)</name>
  <sym>Triangle</sym>
</wpt>
<wpt lat="46.50848" lon="3.80349">
  <name>Municipal Le Vernay - Pierrefitte sur Loire (3) +33470470249 (229m)</name>
  <sym>Triangle</sym>
</wpt>
<wpt lat="46.50932" lon="5.79309">
  <name>Le Val d'Ete - Etival (39) [51] +33384448731 (814m)</name>
  <sym>Triangle</sym>
</wpt>
<wpt lat="46.50961" lon="5.62021">
  <name>La Faz - Ecrille (39) (01/05-30/09) +33384254027 -CCA(396m)</name>
  <sym>Triangle</sym>
</wpt>
<wpt lat="46.51053" lon="2.7067">
  <name>Municipal l'Aumance* - Herisson (01/04-31/10) +33470068045 (195m)</name>
  <sym>Triangle</sym>
</wpt>
<wpt lat="46.51589" lon="3.68472">
  <name>Municipal Les Bords de Besbre - Dompierre sur Besbre (3) +33470345557 (217m)</name>
  <sym>Triangle</sym>
</wpt>
<wpt lat="46.51769" lon="4.5986">
  <name>Municipal De la Clochette - Salornay sur Guye (71) [51] +33385599011 (208m)</name>
  <sym>Triangle</sym>
</wpt>
<wpt lat="46.52191" lon="5.72289">
  <name>De la Fraite - Clairvaux les Lacs (39) (01/05-31/10) +33384258021 (441m)</name>
  <sym>Triangle</sym>
</wpt>
<wpt lat="46.52316" lon="5.67426">
  <name>Surchauffant - La Tour du Meix (39) (01/05-15/09) +33384254108 -CCA(458m)</name>
  <sym>Triangle</sym>
</wpt>
<wpt lat="46.5242" lon="4.69811">
  <name>La Tuilerie de Chazelle - Cormatin (71) [51] +33385501955 (225m)</name>
  <sym>Triangle</sym>
</wpt>
<wpt lat="46.52911" lon="4.26729">
  <name>Benoit - Saint Bonnet de Vieille Vigne (71) [51] +33385702773 (336m)</name>
  <sym>Triangle</sym>
</wpt>
<wpt lat="46.53072" lon="2.99508">
  <name>Les Vernelles - Saint Aubain le Monial [51] (01/01-31/12) +33470660903 (272m)</name>
  <sym>Triangle</sym>
</wpt>
<wpt lat="46.53535" lon="3.74387">
  <name>Municipal Du Gue De Loire - Diou (3) [51] (15/06-31/08) +33604033292 (214m)</name>
  <sym>Triangle</sym>
</wpt>
<wpt lat="46.54218" lon="6.01907">
  <name>La Bucle - Morbier (39) [51] +33384334855 (858m)</name>
  <sym>Triangle</sym>
</wpt>
<wpt lat="46.54858" lon="4.68386">
  <name>Le Hameau des Champs - Cormatin (71) +33385507671 (209m)</name>
  <sym>Triangle</sym>
</wpt>
<wpt lat="46.54978" lon="2.85074">
  <name>Mathoniere - Louroux Bourbonais (3) [51] +33470072306 (348m)</name>
  <sym>Triangle</sym>
</wpt>
<wpt lat="46.55205" lon="3.07914">
  <name>Montlobier - Chauviniere (3) [51] +33470670444 (264m)</name>
  <sym>Triangle</sym>
</wpt>
<wpt lat="46.55531" lon="3.80938">
  <name>La Montgarnie - Gilly sur Loire (71) [51] +33652567670 (285m)</name>
  <sym>Triangle</sym>
</wpt>
<wpt lat="46.5579" lon="2.86486">
  <name>A la ferme Plessiere - Theneuille (3) [51] +33470674097 (310m)</name>
  <sym>Triangle</sym>
</wpt>
<wpt lat="46.56111" lon="4.22507">
  <name>Le Lac - Palinges (71) [51] +33606881449 (260m)</name>
  <sym>Triangle</sym>
</wpt>
<wpt lat="46.5624" lon="5.00577">
  <name>Halte Nautique** - Cuisery (15/04-15/10) +33385400872 (174m)</name>
  <sym>Triangle</sym>
</wpt>
<wpt lat="46.56322" lon="5.25497">
  <name>A la Ferme Les Plattieres - Sainte Croix (71) [51] +33385748142 (184m)</name>
  <sym>Triangle</sym>
</wpt>
<wpt lat="46.56407" lon="5.7563">
  <name>Le Fayolan - Clairvaux les Lacs (39) (01/05-07/09) +33384252619 -CCA(536m)</name>
  <sym>Triangle</sym>
</wpt>
<wpt lat="46.56566" lon="2.96261">
  <name>La ferme Le Bon Coeur - Ygrande (3) [51] +33470663324 (292m)</name>
  <sym>Triangle</sym>
</wpt>
<wpt lat="46.56758" lon="5.75452">
  <name>La Grisiere - Clairvaux les Lacs (39) +33384258048 (538m)</name>
  <sym>Triangle</sym>
</wpt>
<wpt lat="46.56787" lon="3.11722">
  <name>La Ferme la Caille - Autry-Issards (3) [51] +33470439898 (243m)</name>
  <sym>Triangle</sym>
</wpt>
<wpt lat="46.56835" lon="5.75491">
  <name>Grand Lac - Clairvaux les Lacs (39) (01/06-30/09) +33384252214 -CCA(543m)</name>
  <sym>Triangle</sym>
</wpt>
<wpt lat="46.57051" lon="5.35795">
  <name>Les Crotenots* - Le Miroir [51] (01/04-15/10) +33385767178 (201m)</name>
  <sym>Triangle</sym>
</wpt>
<wpt lat="46.57061" lon="2.94751">
  <name>Charcotiere - Ygrande (03) [51] +33470663390 (290m)</name>
  <sym>Triangle</sym>
</wpt>
<wpt lat="46.57061" lon="4.0542">
  <name>Municipal De Chazey - Gueugnon (71) [51] +33385852311 (237m)</name>
  <sym>Triangle</sym>
</wpt>
<wpt lat="46.57139" lon="4.66245">
  <name>Le Gue - Savigny sur Grosne (71) +33385926188 (197m)</name>
  <sym>Triangle</sym>
</wpt>
<wpt lat="46.57366" lon="4.90939">
  <name>Municipal Tournus - Tournus (71) (01/05-30/09) +33385511658 -CCpg354-CCA(175m)</name>
  <sym>Triangle</sym>
</wpt>
<wpt lat="46.57597" lon="5.96325">
  <name>Municipal Le Champs de Mars - Saint Laurent en Grandvaux (39) +33384601930 (916m)</name>
  <sym>Triangle</sym>
</wpt>
<wpt lat="46.57617" lon="5.74218">
  <name>Les Tilleuls - Clairvaux les Lacs (39) +33671221775 (552m)</name>
  <sym>Triangle</sym>
</wpt>
<wpt lat="46.57866" lon="4.45033">
  <name>l'Etang du Rousset - Le Rousset (71) +33385246874 (391m)</name>
  <sym>Triangle</sym>
</wpt>
<wpt lat="46.58058" lon="3.04831">
  <name>Municipal De Bignon - Bourbon l'Archambault (3) +33682826250 (265m)</name>
  <sym>Triangle</sym>
</wpt>
<wpt lat="46.58214" lon="5.98579">
  <name>Les Favieres - Lac Des Rouges Truites (39) [51] +33384608670 (906m)</name>
  <sym>Triangle</sym>
</wpt>
<wpt lat="46.58693" lon="5.69526">
  <name>Les Pecheurs - Pont De Poitte (39) +33384483133 (439m)</name>
  <sym>Triangle</sym>
</wpt>
<wpt lat="46.58724" lon="5.70071">
  <name>Le Moulin - Patornay (39) (26/04-14/09) +33384483121 -CCA(444m)</name>
  <sym>Triangle</sym>
</wpt>
<wpt lat="46.59191" lon="4.77765">
  <name>Ferme-Auberge de Malo - Etrigny (71) [51] +33385922340 (197m)</name>
  <sym>Triangle</sym>
</wpt>
<wpt lat="46.59203" lon="5.73164">
  <name>La Prairie - Boissia (39) +33384483439 (482m)</name>
  <sym>Triangle</sym>
</wpt>
<wpt lat="46.59574" lon="5.87188">
  <name>l'Abbaye - Bonlieu (39) (01/05-30/09) +33384255704 -CCA(801m)</name>
  <sym>Triangle</sym>
</wpt>
<wpt lat="46.5993" lon="5.86491">
  <name>Du Marais - Bonlieu (39) [51] +33384255670 (786m)</name>
  <sym>Triangle</sym>
</wpt>
<wpt lat="46.59976" lon="5.6882">
  <name>Beauregard - Mesnois (39) (01/04-30/09) +33384483251 -CCA(460m)</name>
  <sym>Triangle</sym>
</wpt>
<wpt lat="46.60105" lon="5.09624">
  <name>La Ripe Blanche- Rancy (71) [51] +33385742066 (195m)</name>
  <sym>Triangle</sym>
</wpt>
<wpt lat="46.60236" lon="6.00449">
  <name>Chalet Du Bugnon - Lac Des Rouges Truites (39) [51] +33384602021 (936m)</name>
  <sym>Triangle</sym>
</wpt>
<wpt lat="46.61443" lon="5.84755">
  <name>Le Relais de L'Eventail - Doucier (39) [51] +33384257159 (525m)</name>
  <sym>Triangle</sym>
</wpt>
<wpt lat="46.61859" lon="5.70161">
  <name>Les Claies - Blye (39) [51] +33384483055 (469m)</name>
  <sym>Triangle</sym>
</wpt>
<wpt lat="46.61933" lon="2.81104">
  <name>Municipal La Chapelle - Cerilly (3) [51] +33470675200 (297m)</name>
  <sym>Triangle</sym>
</wpt>
<wpt lat="46.61967" lon="3.75332">
  <name>Du Breuil - Bourbon Lancy (71) (31/03-30/10) +33385892098 -CCpg345(227m)</name>
  <sym>Triangle</sym>
</wpt>
<wpt lat="46.62119" lon="3.7647">
  <name>Le Saint Prix - Bourbon Lancy (71) +33385892098 (233m)</name>
  <sym>Triangle</sym>
</wpt>
<wpt lat="46.62294" lon="5.21682">
  <name>Municipal*** - Louhans (71) (01/04-30/09) +33385751902 -CCA(180m)</name>
  <sym>Triangle</sym>
</wpt>
<wpt lat="46.63076" lon="3.87252">
  <name>La Bazelle - Chalmoux (71) [51] +33385842352 (334m)</name>
  <sym>Triangle</sym>
</wpt>
<wpt lat="46.63404" lon="3.07265">
  <name>A la Ferme Le Petit Crotet - Franchesse (3) [51] +33470667291 (255m)</name>
  <sym>Triangle</sym>
</wpt>
<wpt lat="46.64112" lon="5.90369">
  <name>Municipal Sur Narlay - Le Frasnois (39) [51] +33384255874 (782m)</name>
  <sym>Triangle</sym>
</wpt>
<wpt lat="46.64631" lon="4.69465">
  <name></name>
  <sym>Triangle</sym>
</wpt>
<wpt lat="46.64683" lon="4.08736">
  <name>Motovacances-en-France - Uxeau [51] (01/01-31/12) +33385855401 (252m)</name>
  <sym>Triangle</sym>
</wpt>
<wpt lat="46.64912" lon="2.79678">
  <name>La ferme De Soulisse - Cerilly (3) [51] +33470666881 (257m)</name>
  <sym>Triangle</sym>
</wpt>
<wpt lat="46.65177" lon="5.77487">
  <name>Les Merilles - Doucier (39) (01/04-30/09) +33384257306 -CCA(511m)</name>
  <sym>Triangle</sym>
</wpt>
<wpt lat="46.65247" lon="5.72122">
  <name></name>
  <sym>Triangle</sym>
</wpt>
<wpt lat="46.6545" lon="4.94402">
  <name></name>
  <sym>Triangle</sym>
</wpt>
<wpt lat="46.65598" lon="6.06695">
  <name>Municipal Val de Saine - Foncine le Haut (39) +33384519276 (865m)</name>
  <sym>Triangle</sym>
</wpt>
<wpt lat="46.6582" lon="4.10813">
  <name>Le Lac des Arrouettes - Toulon sur Arroux (71) [51] +33385795030 (246m)</name>
  <sym>Triangle</sym>
</wpt>
<wpt lat="46.6605" lon="3.0945">
  <name>Naturist - Les Fourneaux - Couzon (3) +33470662318 (250m)</name>
  <sym>Triangle</sym>
</wpt>
<wpt lat="46.66278" lon="5.96083">
  <name>Municipal du Bois Joli - Chaux des Crotenay (39) [51] +33384515000 (794m)</name>
  <sym>Triangle</sym>
</wpt>
<wpt lat="46.66421" lon="5.81386">
  <name>Chalain - Doucier (39) (01/05-15/09) +33384257878 -CCA(494m)</name>
  <sym>Triangle</sym>
</wpt>
<wpt lat="46.67007" lon="5.06026">
  <name>Aire naturelle Municipale - Saint Vincent en Bresse (71) [51] +33385765124 (206m)</name>
  <sym>Triangle</sym>
</wpt>
<wpt lat="46.67007" lon="6.1042">
  <name>Aire naturelle Le Castel Blanc - Chatelblanc (25) [51] +33607421067 (942m)</name>
  <sym>Triangle</sym>
</wpt>
<wpt lat="46.67146" lon="2.9038">
  <name>Municipal La Font Saint Julien - Couleuvre (3) [51] +33470661354 (241m)</name>
  <sym>Triangle</sym>
</wpt>
<wpt lat="46.67189" lon="4.8327">
  <name></name>
  <sym>Triangle</sym>
</wpt>
<wpt lat="46.67717" lon="5.78041">
  <name></name>
  <sym>Triangle</sym>
</wpt>
<wpt lat="46.68202" lon="2.78657">
  <name>Les Ecossais - Isle et Bardais (3) +33470666257 (245m)</name>
  <sym>Triangle</sym>
</wpt>
<wpt lat="46.68439" lon="5.56847">
  <name>La Marjorie**** - Lons le Saunier (39) (01/04-15/10) +33384242694 -CCA-BD_FR-K.029(273m)</name>
  <sym>Triangle</sym>
</wpt>
<wpt lat="46.69398" lon="4.13234">
  <name>Municipal Le Val d'Arroux - Toulon sur Arroux (71) +33385795122 (250m)</name>
  <sym>Triangle</sym>
</wpt>
<wpt lat="46.69484" lon="3.10652">
  <name>La Cour Neuve - Saint Leopardin d'Augy (3) [51] +33470662287 (221m)</name>
  <sym>Triangle</sym>
</wpt>
<wpt lat="46.70666" lon="6.20877">
  <name>Municipal de la Source du Doubs - Mouthe (25) [51] +33671454765 (956m)</name>
  <sym>Triangle</sym>
</wpt>
<wpt lat="46.70706" lon="3.32309">
  <name>Municipal des Baillys - Dornes (58) [51] (01/04-30/09) +33386506881 (233m)</name>
  <sym>Triangle</sym>
</wpt>
<wpt lat="46.7076" lon="3.9597">
  <name></name>
  <sym>Triangle</sym>
</wpt>
<wpt lat="46.71007" lon="3.08953">
  <name>Les Royautes - Saint Leopardin d'Augy (3) [51] +33470662479 (230m)</name>
  <sym>Triangle</sym>
</wpt>
<wpt lat="46.71216" lon="5.79803">
  <name>Le Git - Montigny sur l'Ain (39) [51] +33384512117 (523m)</name>
  <sym>Triangle</sym>
</wpt>
<wpt lat="46.71256" lon="5.63622">
  <name>Municipal De La Toupe - Baume Les Messieurs (39) +33384446316 (291m)</name>
  <sym>Triangle</sym>
</wpt>
<wpt lat="46.72232" lon="5.79947">
  <name>Sous Doriat - Monnet la Ville (39) +33384512143 (515m)</name>
  <sym>Triangle</sym>
</wpt>
<wpt lat="46.72375" lon="5.7844">
  <name>Le Bivouac - Pont du Navoy (39) +33384512695 (466m)</name>
  <sym>Triangle</sym>
</wpt>
<wpt lat="46.72507" lon="2.88264">
  <name>Le Marronnier - Lurcy Levis (3) [51] +33470673100 (253m)</name>
  <sym>Triangle</sym>
</wpt>
<wpt lat="46.72601" lon="5.01514">
  <name>Naturist - Des Chenes - St Christophe en Bresse (71) +33608998766 (193m)</name>
  <sym>Triangle</sym>
</wpt>
<wpt lat="46.72622" lon="5.7844">
  <name>Le Navoy - Pont du Navoy (39) [51] +33384512106 (467m)</name>
  <sym>Triangle</sym>
</wpt>
<wpt lat="46.73103" lon="3.61616">
  <name>A la ferme Du Bourg - Gannay sur Loire (3) [51] +33470434901 (199m)</name>
  <sym>Triangle</sym>
</wpt>
<wpt lat="46.73506" lon="2.79831">
  <name>Municipal - Bessais Le Fromental (18) +33248608266 (217m)</name>
  <sym>Triangle</sym>
</wpt>
<wpt lat="46.74673" lon="5.24619">
  <name>Municipal De l'Etang Titard - Saint Germain du Bois (71) [51] +33385720615 (202m)</name>
  <sym>Triangle</sym>
</wpt>
<wpt lat="46.74678" lon="5.89901">
  <name>De Boyse - Champagnole (39) +33384520032 -CCA(535m)</name>
  <sym>Triangle</sym>
</wpt>
<wpt lat="46.75499" lon="5.72608">
  <name>La Ferme Du Petit Cheval Blanc - Fay en Montagne (39) [51] +33384853207 (527m)</name>
  <sym>Triangle</sym>
</wpt>
<wpt lat="46.75722" lon="3.03328">
  <name>Municipal de Saint Mayeul - Le Veurdre (3) [51] (15/06-15/09) +33470664067 (187m)</name>
  <sym>Triangle</sym>
</wpt>
<wpt lat="46.75781" lon="3.94426">
  <name>Chateau de Chigy - Tazilly (58) (26/04-30/09) +33386301080 -CCA(329m)</name>
  <sym>Triangle</sym>
</wpt>
<wpt lat="46.76131" lon="3.93112">
  <name>Mulot - Tazilly (58) [51] +33386301195 (294m)</name>
  <sym>Triangle</sym>
</wpt>
<wpt lat="46.76666" lon="3.77521">
  <name>Municipal Du Lac Marnant - La Nocle Maulaix (58) [51] +33386308411 (226m)</name>
  <sym>Triangle</sym>
</wpt>
<wpt lat="46.77144" lon="6.27572">
  <name>Du Lac - Labergement Sainte Marie (25) +33381693124 (856m)</name>
  <sym>Triangle</sym>
</wpt>
<wpt lat="46.77425" lon="6.36751">
  <name>Municipal Le Miroir - Les Hopitaux Neufs (25) (01/11-31/03-01/05-30/09) +33381491064 -CCpg290(974m)</name>
  <sym>Triangle</sym>
</wpt>
<wpt lat="46.77679" lon="4.20608">
  <name>Le Paroy - La Tagniere (71) [51] (01/04-30/09) +33603566482 -CCA(400m)</name>
  <sym>Triangle</sym>
</wpt>
<wpt lat="46.78423" lon="4.87225">
  <name>Pont de Bourgogne** - St. Marcel (71) (01/04-30/09) +33385482686 -CCpg353-CCA(173m)</name>
  <sym>Triangle</sym>
</wpt>
<wpt lat="46.78586" lon="3.11945">
  <name>Municipal De Beaudrillon - Saint Pierre Le Moutier (58) [51] +33386374209 (220m)</name>
  <sym>Triangle</sym>
</wpt>
<wpt lat="46.79012" lon="5.28576">
  <name>Les Arbois - Montjay (71) [51] +33385720905 (200m)</name>
  <sym>Triangle</sym>
</wpt>
<wpt lat="46.79223" lon="6.29377">
  <name>Les Fuvettes - Malbuisson (25) (01/04-30/09) +33381693150 -CCA(858m)</name>
  <sym>Triangle</sym>
</wpt>
<wpt lat="46.79523" lon="3.70263">
  <name>Vue du Lac-Le Champ Donjon - Fours (58) [51] +33386502067 (227m)</name>
  <sym>Triangle</sym>
</wpt>
<wpt lat="46.7963" lon="3.9781">
  <name>Municipal La Bedure - Luzy (58) +33675225507 (285m)</name>
  <sym>Triangle</sym>
</wpt>
<wpt lat="46.79971" lon="4.06906">
  <name>Boussal- Thil sur Arroux (71) [51] +33979707689 (304m)</name>
  <sym>Triangle</sym>
</wpt>
<wpt lat="46.80179" lon="5.19171">
  <name>Municipal du Plan d'Eau - Mervans (71) [51] +33385761170 (185m)</name>
  <sym>Triangle</sym>
</wpt>
<wpt lat="46.80203" lon="4.09442">
  <name>Aire naturelle Municipale - Thil sur Arroux (71) [51] +33385542621 (286m)</name>
  <sym>Triangle</sym>
</wpt>
<wpt lat="46.80438" lon="4.13496">
  <name>Municipal De la Plage - Saint Nizier sur Arroux (71) +33385542955 (263m)</name>
  <sym>Triangle</sym>
</wpt>
<wpt lat="46.8095" lon="2.73129">
  <name>La Ferme Le Pont Sargy - Bannegon (18) [51] +33248618317 (176m)</name>
  <sym>Triangle</sym>
</wpt>
<wpt lat="46.8103" lon="4.70062">
  <name>Municipal La Vallee des Vaux** - Saint Jean de Vaux (01/05-30/09) +33385451198 (237m)</name>
  <sym>Triangle</sym>
</wpt>
<wpt lat="46.81176" lon="6.30338">
  <name>Municipal - Saint Point Lac (25) (01/05-15/10) +33381696164 (849m)</name>
  <sym>Triangle</sym>
</wpt>
<wpt lat="46.8169" lon="4.0563">
  <name>Naturist - De la Gagere - Luzy (58) (01/04-30/09) +33386304811 -CCA(418m)</name>
  <sym>Triangle</sym>
</wpt>
<wpt lat="46.8173" lon="3.02746">
  <name>Municipal La Bruyere - Mornay sur Allier (18) [51] +33248745701 (208m)</name>
  <sym>Triangle</sym>
</wpt>
<wpt lat="46.82127" lon="4.64412">
  <name>Naturist - Le Bois des Battees - St. Leger-sur-Dheune (71) +33385453284 (421m)</name>
  <sym>Triangle</sym>
</wpt>
<wpt lat="46.82446" lon="4.26817">
  <name>A la ferme Les Grands Champs - La Chapelle sous Uchon (71) [51] +33617980253 (386m)</name>
  <sym>Triangle</sym>
</wpt>
<wpt lat="46.82829" lon="5.10925">
  <name>La Ferme Ahimsa - Serrigny en Bresse (71) [51] +33385477872 (190m)</name>
  <sym>Triangle</sym>
</wpt>
<wpt lat="46.8345" lon="5.69818">
  <name>Municipal de la Croix du Dan - Poligny (39) (01/06-15/09) +33384737758 (311m)</name>
  <sym>Triangle</sym>
</wpt>
<wpt lat="46.83487" lon="3.45552">
  <name>Les Halles - Decize (58) +33386251405 -CCA(190m)</name>
  <sym>Triangle</sym>
</wpt>
<wpt lat="46.84113" lon="4.94571">
  <name>La Mare de Roy* - Gergy [51] (01/05-30/09) +33385917545 (181m)</name>
  <sym>Triangle</sym>
</wpt>
<wpt lat="46.86023" lon="5.29382">
  <name>Camp Libre - La Chapelle Saint Sauveur (71) [51] +33385745927 (200m)</name>
  <sym>Triangle</sym>
</wpt>
<wpt lat="46.86164" lon="4.19129">
  <name>Les 2 Rives - Etang sur Arroux (71) (01/01-31/12) +33385823973 -CCA-BD_FR-J.022a(271m)</name>
  <sym>Triangle</sym>
</wpt>
<wpt lat="46.8668" lon="3.64328">
  <name>Municipal Le Port - Cercy la Tour (58) +33386505527 (198m)</name>
  <sym>Triangle</sym>
</wpt>
<wpt lat="46.86877" lon="4.60556">
  <name>La Bonne Vie - Saint Maurice les Couches (71) [51] +33385455595 (245m)</name>
  <sym>Triangle</sym>
</wpt>
<wpt lat="46.87604" lon="4.55877">
  <name>Municipal La Gabrelle - Couches (71) [51] +33385455949 (360m)</name>
  <sym>Triangle</sym>
</wpt>
<wpt lat="46.87704" lon="3.48066">
  <name>Municipal - La Machine (58) [51] +33386508423 (223m)</name>
  <sym>Triangle</sym>
</wpt>
<wpt lat="46.87959" lon="4.95184">
  <name>Municipal au Fil de l'Eau - Gergy (71) [51] +33762923263 (173m)</name>
  <sym>Triangle</sym>
</wpt>
<wpt lat="46.89181" lon="4.15421">
  <name>Fontaine la Mere - Laizy (71) [51] (01/04-01/10) +33385822801 (311m)</name>
  <sym>Triangle</sym>
</wpt>
<wpt lat="46.89246" lon="2.73011">
  <name>Municipal - Blet (18) [51] +33248747104 (178m)</name>
  <sym>Triangle</sym>
</wpt>
<wpt lat="46.90071" lon="6.37482">
  <name>Le Larmont - Pontarlier (25) +33381462333 (882m)</name>
  <sym>Triangle</sym>
</wpt>
<wpt lat="46.90252" lon="5.01828">
  <name>Municipal La Plage - Verdun sur le Doubs (71) +33385915550 (173m)</name>
  <sym>Triangle</sym>
</wpt>
<wpt lat="46.90271" lon="3.99831">
  <name>La Foret du Morvan - Larochemillay (58) [51] +33386304793 (453m)</name>
  <sym>Triangle</sym>
</wpt>
<wpt lat="46.90353" lon="5.79372">
  <name>A la ferme de Nouvelles - Arbois (39) [51] +33384662153 (322m)</name>
  <sym>Triangle</sym>
</wpt>
<wpt lat="46.90363" lon="5.78674">
  <name>Municipal Les Vignes - Arbois (39) +33384661412 (309m)</name>
  <sym>Triangle</sym>
</wpt>
<wpt lat="46.90382" lon="3.83914">
  <name>Municipal Plateau du Guet - Saint Honore les Bains (58) (01/04-31/10) +33386307600 (266m)</name>
  <sym>Triangle</sym>
</wpt>
<wpt lat="46.90624" lon="5.01841">
  <name>Municipal Les Trois Rivieres - Bragny sur Saone (71) +33385915026 (176m)</name>
  <sym>Triangle</sym>
</wpt>
<wpt lat="46.90685" lon="3.82837">
  <name>Les Bains - St Honore les Bains (58) (01/04-31/10) +33386307344 -CCA(236m)</name>
  <sym>Triangle</sym>
</wpt>
<wpt lat="46.90713" lon="4.68544">
  <name></name>
  <sym>Triangle</sym>
</wpt>
<wpt lat="46.91188" lon="4.74562">
  <name>Le Paquier Fane - Chagny (71) (01/04-31/10) +33385872142 -CCA(206m)</name>
  <sym>Triangle</sym>
</wpt>
<wpt lat="46.91324" lon="3.22249">
  <name>Municipal - Chevenon (58) +33386687171 (208m)</name>
  <sym>Triangle</sym>
</wpt>
<wpt lat="46.91364" lon="3.76473">
  <name>Municipal - Vandenesse (58) [51] +33386307406 (220m)</name>
  <sym>Triangle</sym>
</wpt>
<wpt lat="46.9165" lon="3.49089">
  <name>Le Bois Vieux- Thianges (58) [51] +33386509659 (219m)</name>
  <sym>Triangle</sym>
</wpt>
<wpt lat="46.92372" lon="5.34875">
  <name>Les Bords du Doubs - Petit Noir (39) +33384816356 (182m)</name>
  <sym>Triangle</sym>
</wpt>
<wpt lat="46.92622" lon="5.17072">
  <name>Municipal aire naturelle La Jeannette - Charette Varennes (71) [51] +33385762358 (177m)</name>
  <sym>Triangle</sym>
</wpt>
<wpt lat="46.9299" lon="5.24515">
  <name>Les Pecheurs - Lays sur le Doubs (71) (12/04-28/09) +33385728232 (179m)</name>
  <sym>Triangle</sym>
</wpt>
<wpt lat="46.93153" lon="4.10098">
  <name>La Boutiere - Saint Leger sous Beuvray (71) [51] (15/04-15/10) +33385824886 -CCA(385m)</name>
  <sym>Triangle</sym>
</wpt>
<wpt lat="46.94029" lon="2.95869">
  <name>Municipal Robinson - La Guerche sur l'Aubois (18) [51] +33248741886 -CCA(195m)</name>
  <sym>Triangle</sym>
</wpt>
<wpt lat="46.94166" lon="4.13157">
  <name>Espace Vital - La Grande Verriere (71) [51] +33385824941 (428m)</name>
  <sym>Triangle</sym>
</wpt>
<wpt lat="46.94687" lon="5.87911">
  <name>Municipal - Salins Les Bains (39) [51] +33384731079 (333m)</name>
  <sym>Triangle</sym>
</wpt>
<wpt lat="46.94702" lon="4.62323">
  <name>Municipal Les Chaumes Du Mont - Nolay (21) +33380217961 (316m)</name>
  <sym>Triangle</sym>
</wpt>
<wpt lat="46.94744" lon="4.01171">
  <name></name>
  <sym>Triangle</sym>
</wpt>
<wpt lat="46.94967" lon="4.13438">
  <name>La Chauvotte - La Grande Verriere (71) [51] +33385824971 (365m)</name>
  <sym>Triangle</sym>
</wpt>
<wpt lat="46.94985" lon="3.95789">
  <name>Municipal - Villapourcon (58) [51] (01/06-30/09) +33386786260 (411m)</name>
  <sym>Triangle</sym>
</wpt>
<wpt lat="46.95043" lon="4.62189">
  <name>La Bruyere - Nolay (21) [51] +33380218759 (319m)</name>
  <sym>Triangle</sym>
</wpt>
<wpt lat="46.95362" lon="5.38302">
  <name>Le Canoe - Chaussin (39) +33384817655 (184m)</name>
  <sym>Triangle</sym>
</wpt>
<wpt lat="46.95723" lon="3.74656">
  <name>Municipal Pannecot Plaisance - Limanton (58) [51] (15/06-15/09) +33386843270 (206m)</name>
  <sym>Triangle</sym>
</wpt>
<wpt lat="46.95967" lon="6.1328">
  <name>De La Foret - Levier (25) (01/01-31/12) +33381895346 -CCA(722m)</name>
  <sym>Triangle</sym>
</wpt>
<wpt lat="46.96463" lon="4.2928">
  <name>Municipal de la Porte d'Arroux - Autun (71) (07/04-26/10) +33385521082 -CCpg351-CCA(287m)</name>
  <sym>Triangle</sym>
</wpt>
<wpt lat="46.98057" lon="5.81109">
  <name>La Halte Jurassienne - Mouchard (39) [51] +33384378392 (275m)</name>
  <sym>Triangle</sym>
</wpt>
<wpt lat="46.98213" lon="3.16075">
  <name></name>
  <sym>Triangle</sym>
</wpt>
<wpt lat="46.98563" lon="4.76846">
  <name></name>
  <sym>Triangle</sym>
</wpt>
<wpt lat="46.9858" lon="4.5061">
  <name>Le Pont Vert - Epinac (71) +33385820026 (322m)</name>
  <sym>Triangle</sym>
</wpt>
<wpt lat="46.99345" lon="5.67102">
  <name>Le Val d'Amour - Ounans (39) +33384376189 (221m)</name>
  <sym>Triangle</sym>
</wpt>
<wpt lat="47.00029" lon="5.13702">
  <name>La Plage - Seurre (21) +33380204922 (177m)</name>
  <sym>Triangle</sym>
</wpt>
<wpt lat="47.00167" lon="3.81632">
  <name>Municipal De l'Escame - Moulins Engilbert (58) [51] (25/06-15/09) +33386842612 (238m)</name>
  <sym>Triangle</sym>
</wpt>
<wpt lat="47.00275" lon="5.82488">
  <name>Les Radeliers - Port Lesney (39) (01/05-30/09) +33381883535 (245m)</name>
  <sym>Triangle</sym>
</wpt>
<wpt lat="47.00288" lon="5.66413">
  <name></name>
  <sym>Triangle</sym>
</wpt>
<wpt lat="47.00635" lon="3.90496">
  <name>l'Etang de la Fougeraie - Saint Leger de Fougeret (58) +33386851185 -CCA(436m)</name>
  <sym>Triangle</sym>
</wpt>
<wpt lat="47.00756" lon="5.5988">
  <name>Naturist - Club Du Soleil - Belmont (39) +33384815491 (209m)</name>
  <sym>Triangle</sym>
</wpt>
<wpt lat="47.01144" lon="4.19185">
  <name>Municipal Les Deux Rivieres - La Celle en Morvan (71) [51] (26/04-21/09) +33385541539 -CCA(326m)</name>
  <sym>Triangle</sym>
</wpt>
<wpt lat="47.01201" lon="3.07794">
  <name>La Loire - Fourchambault (58) (29/03-04/11) +33386608159 -CCA(169m)</name>
  <sym>Triangle</sym>
</wpt>
<wpt lat="47.01211" lon="5.63056">
  <name>Les 3 Ours - Montbarrey (39) (15/04-30/09) +33384815045 -CCA(213m)</name>
  <sym>Triangle</sym>
</wpt>
<wpt lat="47.01228" lon="5.85246">
  <name>A la ferme Chez Claudine - Rennes sur Loue (25) [51] (15/05-15/10) +33680962180 (259m)</name>
  <sym>Triangle</sym>
</wpt>
<wpt lat="47.01257" lon="4.98286">
  <name>Les Paquiers* - Corberon [51] (01/01-31/12) +33380266544 (183m)</name>
  <sym>Triangle</sym>
</wpt>
<wpt lat="47.01306" lon="5.12972">
  <name>Municipal - Pouilly sur Saone (21) +33380211583 (178m)</name>
  <sym>Triangle</sym>
</wpt>
<wpt lat="47.01409" lon="5.12825">
  <name>Les Sables - Pouilly sur Saone (21) [51] +33380204350 (176m)</name>
  <sym>Triangle</sym>
</wpt>
<wpt lat="47.01653" lon="5.48149">
  <name>Les Bords de Loue*** - Parcey (39) (01/05-05/09) +33384710382 -CCA(196m)</name>
  <sym>Triangle</sym>
</wpt>
<wpt lat="47.02677" lon="4.88306">
  <name>Les Bouleaux** - Vignoles [51] (01/01-31/12) +33380222688 (200m)</name>
  <sym>Triangle</sym>
</wpt>
<wpt lat="47.02888" lon="5.79458">
  <name>Municipal Bords De Loue - Arc et Senans (25) [51] (27/04-28/09) +33381574320 (234m)</name>
  <sym>Triangle</sym>
</wpt>
<wpt lat="47.0328" lon="4.83913">
  <name>Municipal Les Cent Vignes**** - Beaune (15/03-31/10) +33380220391 (223m)</name>
  <sym>Triangle</sym>
</wpt>
<wpt lat="47.03956" lon="6.50313">
  <name>Le Lava - Gilley (25) [51] (01/01-31/12) +33381433088 (865m)</name>
  <sym>Triangle</sym>
</wpt>
<wpt lat="47.04048" lon="5.81528">
  <name>Municipal La Louve - Champagne sur Loue (39) [51] (01/04-30/09) +33384376912 (238m)</name>
  <sym>Triangle</sym>
</wpt>
<wpt lat="47.04123" lon="6.26015">
  <name>Les Oyes - Mouthier Haute Pierre (25) [51] (01/04-31/10) +33381609139 (388m)</name>
  <sym>Triangle</sym>
</wpt>
<wpt lat="47.046" lon="4.02519">
  <name>Municipal - Arleuf (58) [51] +33386788037 (644m)</name>
  <sym>Triangle</sym>
</wpt>
<wpt lat="47.04617" lon="6.23824">
  <name>Municipal le Champaloux - Lods (25) [51] +33381609011 (363m)</name>
  <sym>Triangle</sym>
</wpt>
<wpt lat="47.04893" lon="4.21574">
  <name>Aire Naturelle Chateau de Valogne - Sommant (71) [51] (15/04-15/10) +33385826297 (342m)</name>
  <sym>Triangle</sym>
</wpt>
<wpt lat="47.05304" lon="6.59908">
  <name>Cul de la Lune - Morteau (25) [51] (01/06-21/09) +33381671752 (754m)</name>
  <sym>Triangle</sym>
</wpt>
<wpt lat="47.05346" lon="3.65426">
  <name>Municipal - Chatillon en Bazois (58) [51] +33386841476 (229m)</name>
  <sym>Triangle</sym>
</wpt>
<wpt lat="47.05513" lon="3.92626">
  <name>Municipal Le Perthuy d'oiseau - Chateau Chinon Ville (58) (01/05-30/09) +33386850817 (559m)</name>
  <sym>Triangle</sym>
</wpt>
<wpt lat="47.05733" lon="3.81565">
  <name>Le Manoir de Bezolle - Saint Pereuse (58) (01/01-31/12) +33386844255 -CCpg346-CCA(359m)</name>
  <sym>Triangle</sym>
</wpt>
<wpt lat="47.05856" lon="6.40584">
  <name>A la ferme de la Rasse - Arc sous Cicon (25) [51] (15/05-30/09) +33643464457 (816m)</name>
  <sym>Triangle</sym>
</wpt>
<wpt lat="47.06375" lon="6.21835">
  <name>Municipal Le Pre Bailly - Vuillafans (25) [51] (15/03-30/09) +33608110144 (350m)</name>
  <sym>Triangle</sym>
</wpt>
<wpt lat="47.06833" lon="4.80335">
  <name>Municipal Les Premiers Pres** - Savigny les Beaune (15/03-30/09) +33380261506 (277m)</name>
  <sym>Triangle</sym>
</wpt>
<wpt lat="47.07003" lon="5.16798">
  <name>Pont De Charrey - Pagny La Ville (21) +33380665277 (177m)</name>
  <sym>Triangle</sym>
</wpt>
<wpt lat="47.07668" lon="4.24675">
  <name>Aire naturelle Municipale Le Ternin - Lucenay l'Eveque (71) [51] +33385826186 (336m)</name>
  <sym>Triangle</sym>
</wpt>
<wpt lat="47.07791" lon="4.09193">
  <name>Municipal du Pont de Bussy - Anost (71) (01/04-30/09) +33385827907 (453m)</name>
  <sym>Triangle</sym>
</wpt>
<wpt lat="47.08141" lon="6.18495">
  <name>Aire naturelle Municipale - Montgesoye (25) [51] +33381622314 (350m)</name>
  <sym>Triangle</sym>
</wpt>
<wpt lat="47.08209" lon="3.59607">
  <name>Municipal La Chenaie - Montapas (58) [51] (01/04-31/10) +33386583432 (248m)</name>
  <sym>Triangle</sym>
</wpt>
<wpt lat="47.0843" lon="3.09349">
  <name>Municipal Les Chanternes - Pougues les Eaux (58) (01/06-30/09) +33386688618 (183m)</name>
  <sym>Triangle</sym>
</wpt>
<wpt lat="47.08946" lon="5.50328">
  <name>Le Pasquier*** - Dole (39) (15/03-25/10) +33384720261 -CCA(201m)</name>
  <sym>Triangle</sym>
</wpt>
<wpt lat="47.09683" lon="3.87385">
  <name>Municipal - Chatin (58) [51] +33386852362 (434m)</name>
  <sym>Triangle</sym>
</wpt>
<wpt lat="47.10014" lon="4.1859">
  <name>Le Papillon - Cussy en Morvan (71) [51] (25/04-01/09) +33385546090 (462m)</name>
  <sym>Triangle</sym>
</wpt>
<wpt lat="47.10056" lon="6.12782">
  <name>Le Chanet - Ornans (25) (01/04-30/09) +33381622344 -CCA(346m)</name>
  <sym>Triangle</sym>
</wpt>
<wpt lat="47.10065" lon="6.16038">
  <name>La Roche d'Ully - Ornans (02/04-15/10) +33381571779 -CCpg291(335m)</name>
  <sym>Triangle</sym>
</wpt>
<wpt lat="47.1022" lon="5.27552">
  <name>Les Herlequins - Saint Jean de Losne (21) (01/05-30/09) +33380392226 (178m)</name>
  <sym>Triangle</sym>
</wpt>
<wpt lat="47.10357" lon="4.94144">
  <name>Moulin de Prissey** - Premeaux Prissey (01/04-15/10) +33380623115 -CCA(212m)</name>
  <sym>Triangle</sym>
</wpt>
<wpt lat="47.10459" lon="5.88969">
  <name>Municipal Les Promenades - Quingey (25) (02/05-30/09) +33381637401 (264m)</name>
  <sym>Triangle</sym>
</wpt>
<wpt lat="47.1086" lon="4.66028">
  <name>Municipal Des Isles - Bligny sur Ouche (21) (01/05-30/09) +33380201121 (350m)</name>
  <sym>Triangle</sym>
</wpt>
<wpt lat="47.11779" lon="3.93271">
  <name>Municipal des Soulins - Corancy (58) [51] (11/04-26/10) +33386844752 (328m)</name>
  <sym>Triangle</sym>
</wpt>
<wpt lat="47.12545" lon="5.58808">
  <name>Les Marronniers - Rochefort sur Nenon (39) (01/04-31/10) +33384705037 (204m)</name>
  <sym>Triangle</sym>
</wpt>
<wpt lat="47.12788" lon="3.89584">
  <name>Agreable - Montigny en Morvan [51] +313652640168 (439m)</name>
  <sym>Triangle</sym>
</wpt>
<wpt lat="47.13414" lon="4.49814">
  <name>l'Etang de Fouche - Arnay Le Duc (21) (12/04-12/10) +33380900223 -CCA(360m)</name>
  <sym>Triangle</sym>
</wpt>
<wpt lat="47.13544" lon="4.02032">
  <name>Municipal - Planchez (58) +33386784203 (621m)</name>
  <sym>Triangle</sym>
</wpt>
<wpt lat="47.13693" lon="3.49331">
  <name>l'Etang du Merle - Crux la Ville (58) (07/04-26/10) +33386583842 -CCpg347-CCA(360m)</name>
  <sym>Triangle</sym>
</wpt>
<wpt lat="47.1395" lon="5.85141">
  <name>La Plage - Osselle (25) [51] (15/04-30/09) +33381638388 (219m)</name>
  <sym>Triangle</sym>
</wpt>
<wpt lat="47.14414" lon="3.90672">
  <name>Municipal Les Iles - Chaumard (58) [51] +33386780300 (329m)</name>
  <sym>Triangle</sym>
</wpt>
<wpt lat="47.14671" lon="5.6468">
  <name>Municipal - Orchamps (39) [51] (01/06-15/09) +33384713035 (212m)</name>
  <sym>Triangle</sym>
</wpt>
<wpt lat="47.148" lon="5.72416">
  <name>l'Ile** - Ranchot [51] (01/01-31/12) +33384711356 (214m)</name>
  <sym>Triangle</sym>
</wpt>
<wpt lat="47.14865" lon="5.85707">
  <name>Naturist - Club Naturiste de Besancon - Osselle (25) [51] (01/05-30/09) +33652858892 (254m)</name>
  <sym>Triangle</sym>
</wpt>
<wpt lat="47.1509" lon="5.75873">
  <name>Municipal Les Peupliers- Fraisans (39) [51] +33384813662 (215m)</name>
  <sym>Triangle</sym>
</wpt>
<wpt lat="47.15592" lon="3.87423">
  <name>Municipal Du Lac - Montigny en Morvan (58) (15/04-15/10) +33386847576 (328m)</name>
  <sym>Triangle</sym>
</wpt>
<wpt lat="47.15863" lon="4.07427">
  <name>Rose de Provins - Gien sur Cure (58) [51] (18/04-31/10) +33386784136 (648m)</name>
  <sym>Triangle</sym>
</wpt>
<wpt lat="47.16449" lon="3.61453">
  <name>Municipal De Baye - Bazolles (58) [51] +33386389033 (265m)</name>
  <sym>Triangle</sym>
</wpt>
<wpt lat="47.17059" lon="4.15253">
  <name>Municipal le Bourg - Moux en Morvan (58) [51] +33386761150 (491m)</name>
  <sym>Triangle</sym>
</wpt>
<wpt lat="47.17204" lon="4.05941">
  <name>l'Hermitage de Chevigny - Moux en Morvan (58) (15/04-30/09) +33386845097 (592m)</name>
  <sym>Triangle</sym>
</wpt>
<wpt lat="47.17315" lon="4.07017">
  <name>Municipal La Cabane Verte - Moux en Morvan (58) (15/04-15/10) +33386760225 (592m)</name>
  <sym>Triangle</sym>
</wpt>
<wpt lat="47.17682" lon="3.01018">
  <name>Municipal La Saulaie - La Charite sur Loire (58) (01/05-30/09) +33386700083 (155m)</name>
  <sym>Triangle</sym>
</wpt>
<wpt lat="47.17817" lon="3.62059">
  <name>De la Base de Plein Air et de Loisirs - Bazolles (58) (01/04-30/09) +33386389739 (263m)</name>
  <sym>Triangle</sym>
</wpt>
<wpt lat="47.17832" lon="3.33698">
  <name>Municipal les Pres de la Ville - Premery (58) [51] (12/04-28/09) +33386681240 (236m)</name>
  <sym>Triangle</sym>
</wpt>
<wpt lat="47.18174" lon="4.05288">
  <name>Les Mesanges - Montsauche les Settons (58) (14/05-15/09) +33386845577 -CCA(590m)</name>
  <sym>Triangle</sym>
</wpt>
<wpt lat="47.18206" lon="3.73473">
  <name>Sur Yonne - Epiry (58) [51] (06/04-31/10) +33386224667 (231m)</name>
  <sym>Triangle</sym>
</wpt>
<wpt lat="47.18554" lon="3.94637">
  <name>Ambiance Morvan - Ouroux en Morvan (58) [51] +33386782221 (563m)</name>
  <sym>Triangle</sym>
</wpt>
<wpt lat="47.1862" lon="4.0718">
  <name></name>
  <sym>Triangle</sym>
</wpt>
<wpt lat="47.18871" lon="3.93922">
  <name>Les Genets - Ouroux en Morvan (58) (11/04-27/09) +33386782288 -CCA(562m)</name>
  <sym>Triangle</sym>
</wpt>
<wpt lat="47.19025" lon="3.67101">
  <name>Rural de Goguelat Bernard - La Collancelle (58) [51] +33386224189 (258m)</name>
  <sym>Triangle</sym>
</wpt>
<wpt lat="47.19365" lon="4.06002">
  <name>Plage des Settons - Montsauche les Settons (58) (01/05-28/09) +33386845199 (597m)</name>
  <sym>Triangle</sym>
</wpt>
<wpt lat="47.19396" lon="4.07517">
  <name>Municipal La Baie de la Faye - Montsauche les Settons (58) [51] (01/06-01/09) +33386845583 (594m)</name>
  <sym>Triangle</sym>
</wpt>
<wpt lat="47.1988" lon="5.38251">
  <name>l'Arquebuse - Auxonne (21) (20/01-19/12) +33380310689 -CCA(182m)</name>
  <sym>Triangle</sym>
</wpt>
<wpt lat="47.20233" lon="4.08444">
  <name>A la ferme du Bridier - Montsauche les Settons (58) [51] (01/03-15/11) +33386845370 (633m)</name>
  <sym>Triangle</sym>
</wpt>
<wpt lat="47.20318" lon="5.38275">
  <name>Aire naturelle Amitie et Nature - Auxonne (21) [51] +33380373644 (181m)</name>
  <sym>Triangle</sym>
</wpt>
<wpt lat="47.22171" lon="6.53282">
  <name>A la ferme de Le Cret - Pierrefontaine Les Varans (25) [51] (01/05-30/09) +33381560476 (703m)</name>
  <sym>Triangle</sym>
</wpt>
<wpt lat="47.22894" lon="3.58187">
  <name>Sunnywingsplace - Guipy (58) [51] +31650919135 (246m)</name>
  <sym>Triangle</sym>
</wpt>
<wpt lat="47.2325" lon="4.90533">
  <name>Relais Des Hautes Cotes - Chamboeuf (21) [51] (26/04-12/09) +33380585013 (517m)</name>
  <sym>Triangle</sym>
</wpt>
<wpt lat="47.2348" lon="3.59424">
  <name>D'Ainay - Guipy (58) [51] +33386290711 (241m)</name>
  <sym>Triangle</sym>
</wpt>
<wpt lat="47.23669" lon="4.62871">
  <name></name>
  <sym>Triangle</sym>
</wpt>
<wpt lat="47.24613" lon="6.66924">
  <name>A la ferme Le Vieux Moulin - Charmoille (25) [51] +33381443029 (685m)</name>
  <sym>Triangle</sym>
</wpt>
<wpt lat="47.24723" lon="6.80053">
  <name>Le Saint Michel - Maiche (25) +33381641256 (827m)</name>
  <sym>Triangle</sym>
</wpt>
<wpt lat="47.25862" lon="3.64131">
  <name>De l'Ardan - Chaumot (58) [51] (01/04-01/10) +33386200770 -CCA(188m)</name>
  <sym>Triangle</sym>
</wpt>
<wpt lat="47.26209" lon="3.92357">
  <name>Municipal - Brassy (58) [51] (15/05-15/10) +33386222031 (405m)</name>
  <sym>Triangle</sym>
</wpt>
<wpt lat="47.26543" lon="4.54882">
  <name>Vert Auxois - Pouilly en Auxois (21) [51] (01/05-15/10) +33380907189 -CCA(383m)</name>
  <sym>Triangle</sym>
</wpt>
<wpt lat="47.2658" lon="6.0713">
  <name>La Plage*** - Chalezeule-Besancon (25) (01/04-30/09) +33381505462 -CCA(244m)</name>
  <sym>Triangle</sym>
</wpt>
<wpt lat="47.27023" lon="6.95042">
  <name>Municipal La Forge - Goumois (25) [51] (01/04-31/10) +33381442824 (502m)</name>
  <sym>Triangle</sym>
</wpt>
<wpt lat="47.27107" lon="6.27267">
  <name>Le Moulin de Guigot - Glamondans (25) [51] (01/05-30/10) +33381630015 (391m)</name>
  <sym>Triangle</sym>
</wpt>
<wpt lat="47.27424" lon="4.09182">
  <name>Municipal Les Saults - Saint Brisson (58) [51] +33386787080 (608m)</name>
  <sym>Triangle</sym>
</wpt>
<wpt lat="47.27698" lon="5.56592">
  <name>La Colombiere - Pesmes (70) (01/05-31/10) +33384312015 (191m)</name>
  <sym>Triangle</sym>
</wpt>
<wpt lat="47.28256" lon="3.82267">
  <name>Municipal De l'Etang du Goulot - Lormes (58) (01/05-30/09) +33386228237 -CCA(421m)</name>
  <sym>Triangle</sym>
</wpt>
<wpt lat="47.28612" lon="1.76996">
  <name>Municipal** - Villefranche sur Cher [51] (15/05-15/09) +33254964227 (84m)</name>
  <sym>Triangle</sym>
</wpt>
<wpt lat="47.28723" lon="2.94564">
  <name>Le Malaga - Pouilly sur Loire (58) (01/05-15/09) +33386391454 (148m)</name>
  <sym>Triangle</sym>
</wpt>
<wpt lat="47.28903" lon="0.73385">
  <name>La Plage*** - Veigne (25/04-30/09) +33247262300 (55m)</name>
  <sym>Triangle</sym>
</wpt>
<wpt lat="47.28963" lon="5.77731">
  <name>Municipal Vert Lagon*** - Marnay (01/05-30/09) +33384317141 -CCpg292(201m)</name>
  <sym>Triangle</sym>
</wpt>
<wpt lat="47.29138" lon="2.53794">
  <name>Municipal Du Petit Bois - Henrichemont (18) [51] (02/05-31/10) +33248269471 (281m)</name>
  <sym>Triangle</sym>
</wpt>
<wpt lat="47.2936" lon="1.32974">
  <name>Municipal Le Port*** - Mareuil sur Cher (15/04-15/09) +33254327951 (67m)</name>
  <sym>Triangle</sym>
</wpt>
<wpt lat="47.29973" lon="6.74306">
  <name>La Ferme de Montaigu- Valoreille (25) [51] (01/05-01/10) +33381933360 (713m)</name>
  <sym>Triangle</sym>
</wpt>
<wpt lat="47.30319" lon="2.74583">
  <name>Municipal Paulin Roulin - Crezancy en Sancerre (18) [51] (01/04-15/10) +33248790394 (278m)</name>
  <sym>Triangle</sym>
</wpt>
<wpt lat="47.30849" lon="5.42542">
  <name>La Chanoie - Pontailler sur Saone (21) (15/04-15/10) +33380361058 (185m)</name>
  <sym>Triangle</sym>
</wpt>
<wpt lat="47.31226" lon="5.45158">
  <name>La Valboisiere - Perrigny sur l'Ognon (21) [51] (01/01-31/12) +33380478078 (186m)</name>
  <sym>Triangle</sym>
</wpt>
<wpt lat="47.31375" lon="2.26334">
  <name>Municipal - Neuvy sur Barangeon (18) [51] (01/04-30/09) +33248516892 (148m)</name>
  <sym>Triangle</sym>
</wpt>
<wpt lat="47.31575" lon="5.8668">
  <name>Municipal Beau Rivage - Emagny (25) +33351956758 (206m)</name>
  <sym>Triangle</sym>
</wpt>
<wpt lat="47.31838" lon="1.65743">
  <name>Municipal Du Chene - Pruniers en Sologne (41) [51] (15/06-15/09) +33254965231 (89m)</name>
  <sym>Triangle</sym>
</wpt>
<wpt lat="47.32118" lon="5.01109">
  <name>Municipal Le Lac Kir *** - Dijon (01/04-15/10) +33380305401 (240m)</name>
  <sym>Triangle</sym>
</wpt>
<wpt lat="47.32266" lon="6.82133">
  <name>Les Grands Champs - Saint Hippolyte (25) (01/01-31/12) +33381965453 (393m)</name>
  <sym>Triangle</sym>
</wpt>
<wpt lat="47.32304" lon="1.36816">
  <name>Du Bien Vivre - St. Romain sur Cher [51] (01/01-31/12) +33254717374 (99m)</name>
  <sym>Triangle</sym>
</wpt>
<wpt lat="47.32481" lon="6.36109">
  <name>De l'Ile - Pont les Moulins [51] (01/05-31/08) +33381841523 -CCA(287m)</name>
  <sym>Triangle</sym>
</wpt>
<wpt lat="47.32627" lon="5.45562">
  <name>Aire naturelle Municipale - Heuilley sur Saone (21) [51] (15/05-30/09) +33380474218 (189m)</name>
  <sym>Triangle</sym>
</wpt>
<wpt lat="47.32739" lon="1.08927">
  <name>Le Moulin Fort*** - Francueil (12/04-25/09) +33247238622 -CCA(58m)</name>
  <sym>Triangle</sym>
</wpt>
<wpt lat="47.32744" lon="1.04133">
  <name>River Camp - Civray de Tourraine [51] (01/06-31/08) +33247302905 (58m)</name>
  <sym>Triangle</sym>
</wpt>
<wpt lat="47.32797" lon="0.99698">
  <name>Municipal De La Gatine*** - Blere (01/04-10/10) +33247579260 (55m)</name>
  <sym>Triangle</sym>
</wpt>
<wpt lat="47.32905" lon="1.08816">
  <name>De L'Ecluse** - Chisseaux  (01/04-30/09) +33247238710 (58m)</name>
  <sym>Triangle</sym>
</wpt>
<wpt lat="47.32906" lon="5.97188">
  <name>Les Peupliers** - Geneuille (25) [51] (01/05-31/10) +33672147253 (220m)</name>
  <sym>Triangle</sym>
</wpt>
<wpt lat="47.33033" lon="1.06947">
  <name>La Fontaine des Pres - Chenonceaux (37) (01/06-15/09) +33247239013 (60m)</name>
  <sym>Triangle</sym>
</wpt>
<wpt lat="47.33384" lon="1.18766">
  <name>Couleurs du Monde - Faverolles sur Cher (41) (29/03-27/09) +33254320608 -CCA(61m)</name>
  <sym>Triangle</sym>
</wpt>
<wpt lat="47.33644" lon="6.35447">
  <name>Municipal - Baume les Dames (01/01-31/12) +3381843889 (266m)</name>
  <sym>Triangle</sym>
</wpt>
<wpt lat="47.33846" lon="1.17085">
  <name>Municipal de l'Etourneau - Montrichard (41) (01/04-30/09) +33254321016 (61m)</name>
  <sym>Triangle</sym>
</wpt>
<wpt lat="47.34223" lon="2.86585">
  <name>Les Portes de Sancerre - Saint Satur (18) (05/04-19/10) +33248721088 -CCA(147m)</name>
  <sym>Triangle</sym>
</wpt>
<wpt lat="47.34431" lon="7.01327">
  <name>Municipal Le Clos de Doubs - Glere (25) (01/03-31/10) +33473191111 (480m)</name>
  <sym>Triangle</sym>
</wpt>
<wpt lat="47.34567" lon="1.47411">
  <name>Municipal** - Chemery [51] (01/06-30/09) +33254713108 (87m)</name>
  <sym>Triangle</sym>
</wpt>
<wpt lat="47.34848" lon="6.91888">
  <name>Municipal le Paquier - Vaufrey (25) +33637515690 (399m)</name>
  <sym>Triangle</sym>
</wpt>
<wpt lat="47.34929" lon="1.29354">
  <name>Municipal** - Monthou sur Cher [51] (01/05-30/09) +33254715385 (75m)</name>
  <sym>Triangle</sym>
</wpt>
<wpt lat="47.3522" lon="2.18561">
  <name>Municipal Des Pins - Nancay (18) (01/04-30/10) +33248518180 (137m)</name>
  <sym>Triangle</sym>
</wpt>
<wpt lat="47.35403" lon="6.37889">
  <name>Municipal De Lonot* - Baume les Dames [51] (01/05-30/09) +33381843889 (278m)</name>
  <sym>Triangle</sym>
</wpt>
<wpt lat="47.35491" lon="1.75562">
  <name>Le Tournefeuille **** - Romorantin (41) (01/05-30/09) +33254953708 (86m)</name>
  <sym>Triangle</sym>
</wpt>
<wpt lat="47.35773" lon="6.08055">
  <name>Verte Rive** - Cromary [51] (01/04-30/09) +33477617812 (218m)</name>
  <sym>Triangle</sym>
</wpt>
<wpt lat="47.35809" lon="0.8149">
  <name>Municipal Les Isles*** - Veretz (16/05-09/09) +33247505048 (54m)</name>
  <sym>Triangle</sym>
</wpt>
<wpt lat="47.35893" lon="6.0786">
  <name>l'Esplanade** - Cromary (70) [51] (01/04-30/09) +33384918200 -CCA(218m)</name>
  <sym>Triangle</sym>
</wpt>
<wpt lat="47.35978" lon="2.44192">
  <name>Paradis Nature - La Chapelle d'Angillon (18) [51] (01/04-26/10) +33248734012 (196m)</name>
  <sym>Triangle</sym>
</wpt>
<wpt lat="47.36241" lon="6.11439">
  <name>La Vallee** - Moncey [51] (01/01-31/12) +33381578901 (219m)</name>
  <sym>Triangle</sym>
</wpt>
<wpt lat="47.36869" lon="3.11574">
  <name>Municipal - Donzy (58) [51] (01/06-31/08) +33386393028 (179m)</name>
  <sym>Triangle</sym>
</wpt>
<wpt lat="47.3818" lon="1.45621">
  <name>A la Ferrme La Charmoise - Sassay (41) [51] (01/03-31/10) +33254795515 (112m)</name>
  <sym>Triangle</sym>
</wpt>
<wpt lat="47.38334" lon="1.36192">
  <name>La ferme La Presle Verte - Oisly (41) [51] (01/01-31/12) +33615707402 (109m)</name>
  <sym>Triangle</sym>
</wpt>
<wpt lat="47.38755" lon="5.99048">
  <name>La Tuilerie - Boult (70) [51] (01/05-30/09) +33384917200 (255m)</name>
  <sym>Triangle</sym>
</wpt>
<wpt lat="47.38882" lon="2.68081">
  <name>Intercommunal La Balance - Jars (18) [51] (01/04-20/10) +33248587450 (223m)</name>
  <sym>Triangle</sym>
</wpt>
<wpt lat="47.39432" lon="0.81151">
  <name>Municipal Les Peupliers*** - Montlouis s/Loire (01/04-25/10) +33247508190 -CCpg317-CCA(51m)</name>
  <sym>Triangle</sym>
</wpt>
<wpt lat="47.39442" lon="6.49814">
  <name>Municipal Les Isles * - Clerval [51] (01/04-31/10) +33381938619 (281m)</name>
  <sym>Triangle</sym>
</wpt>
<wpt lat="47.39467" lon="6.13826">
  <name>Municipal La Vaivre* - Cirey [51] (01/04-30/09) +33384918143 (222m)</name>
  <sym>Triangle</sym>
</wpt>
<wpt lat="47.39627" lon="4.94331">
  <name>l'Oree du Bois - Darois (21) +33380356088 (505m)</name>
  <sym>Triangle</sym>
</wpt>
<wpt lat="47.39641" lon="6.13725">
  <name>Municipal Le Paquillot * - Cirey [51] (01/04-30/09) +33384918143 (223m)</name>
  <sym>Triangle</sym>
</wpt>
<wpt lat="47.39985" lon="1.95291">
  <name>Municipal le Petit Arcachon * - La Ferte Imbault (01/05-15/09) +33684996637 (103m)</name>
  <sym>Triangle</sym>
</wpt>
<wpt lat="47.40208" lon="0.7785">
  <name>Les Acacias** - La Ville aux Dames (37) (01/01-31/12) +33247440816 -CCA(51m)</name>
  <sym>Triangle</sym>
</wpt>
<wpt lat="47.40659" lon="1.52997">
  <name>Municipal Le Petit Mont en Jonc - Soings en Sologne (41) [51] (01/06-31/08) +33254987328 (105m)</name>
  <sym>Triangle</sym>
</wpt>
<wpt lat="47.40824" lon="2.91759">
  <name>l'Ile - Cosne Cours sur Loire (58) (01/04-31/10) +33386282792 (142m)</name>
  <sym>Triangle</sym>
</wpt>
<wpt lat="47.4087" lon="0.79623">
  <name>Municipal Le Bec de Cisse ** - Vouvray [51] (01/05-30/09) +33247526881 (53m)</name>
  <sym>Triangle</sym>
</wpt>
<wpt lat="47.41683" lon="0.98697">
  <name>Municipal De l'Ile d'Or - Amboise (37) (01/04-30/09) +33247572337 (57m)</name>
  <sym>Triangle</sym>
</wpt>
<wpt lat="47.42526" lon="6.07482">
  <name>Municipal Le Lac - Rioz (70) (01/04-30/09) +33384919159 (269m)</name>
  <sym>Triangle</sym>
</wpt>
<wpt lat="47.42764" lon="2.37926">
  <name>Municipal De L'Arrachis - Ennordres (18) [51] (01/05-30/09) +33248580682 (164m)</name>
  <sym>Triangle</sym>
</wpt>
<wpt lat="47.43025" lon="2.05457">
  <name>Le Sologne*** - Salbris (41) (01/04-30/09) +33254970638 -CCA(103m)</name>
  <sym>Triangle</sym>
</wpt>
<wpt lat="47.43126" lon="0.95414">
  <name>Municipal Des Patis - Nazelles Negron (37) (01/05-14/09) +33247577107 (55m)</name>
  <sym>Triangle</sym>
</wpt>
<wpt lat="47.43206" lon="5.28259">
  <name>A la ferme de la Rente Neuve - Noiron sur Beze (21) [51] +33380367167 (210m)</name>
  <sym>Triangle</sym>
</wpt>
<wpt lat="47.43319" lon="7.25475">
  <name>Les Bouleaux - Lucelle (68) +33389408533 (697m)</name>
  <sym>Triangle</sym>
</wpt>
<wpt lat="47.43491" lon="1.02818">
  <name>Municipal du Verdeau - Charge (37) (01/07-03/09) +33247570422 (58m)</name>
  <sym>Triangle</sym>
</wpt>
<wpt lat="47.44057" lon="6.34314">
  <name>Bois de Reveuge**** - Huanne Montmartin (25) (25/04-05/09) +33381843860 -CCA(310m)</name>
  <sym>Triangle</sym>
</wpt>
<wpt lat="47.44615" lon="2.30391">
  <name>Municipal Le Bout Du Pont - Menetreol sur Sauldre (18) [51] (Easter-30/09) +33248580430 (152m)</name>
  <sym>Triangle</sym>
</wpt>
<wpt lat="47.44662" lon="1.04771">
  <name>Le Jardin Botanique - Limeray (37) (01/01-31/12) +33247301350 (58m)</name>
  <sym>Triangle</sym>
</wpt>
<wpt lat="47.452" lon="6.58274">
  <name>Les Lumes*** - l'Isle sur Le Doubs (01/04-30/09) +33689144157 (288m)</name>
  <sym>Triangle</sym>
</wpt>
<wpt lat="47.45243" lon="5.60173">
  <name>Municipal Longue Rive - Gray (70) (15/04-30/09) +33384649044 (189m)</name>
  <sym>Triangle</sym>
</wpt>
<wpt lat="47.45559" lon="6.80512">
  <name>Les Grands Ansanges** - Mandeure [51] (01/04-31/10) +33381352379 (331m)</name>
  <sym>Triangle</sym>
</wpt>
<wpt lat="47.46075" lon="1.1411">
  <name>A la ferme du Plessis - Rilly sur Loire (41) [51] (01/04-30/09) +33254209055 (92m)</name>
  <sym>Triangle</sym>
</wpt>
<wpt lat="47.46418" lon="6.26372">
  <name>Municipal Entre les Deux Ponts - Montbozon (70) [51] +33384205226 (241m)</name>
  <sym>Triangle</sym>
</wpt>
<wpt lat="47.46911" lon="7.20719">
  <name>Intercommunal Du Plan d'Eau de Courtavon - Courtavon (68) (01/05-30/09) +33683415092 (436m)</name>
  <sym>Triangle</sym>
</wpt>
<wpt lat="47.4704" lon="3.14624">
  <name>A la ferme Raviere - Bouhy (58) [51] +33386264084 (306m)</name>
  <sym>Triangle</sym>
</wpt>
<wpt lat="47.47803" lon="1.4508">
  <name>Les Saules - Cheverny (41) (01/04-20/09) +33254799001 -CCA(92m)</name>
  <sym>Triangle</sym>
</wpt>
<wpt lat="47.4828" lon="6.30732">
  <name>La Forge - Montagney Servigney (25) (01/05-30/09) +33381543591 (245m)</name>
  <sym>Triangle</sym>
</wpt>
<wpt lat="47.4849" lon="2.45587">
  <name>Des Etangs - Aubigny sur Nere (18) (01/04-30/09) +33248580237 -CCA(192m)</name>
  <sym>Triangle</sym>
</wpt>
<wpt lat="47.48491" lon="1.19462">
  <name>Municipal - Chaumont sur Loire (41) (01/05-30/09) +33254209522 (62m)</name>
  <sym>Triangle</sym>
</wpt>
<wpt lat="47.48608" lon="7.27049">
  <name>Les Hetres - Bendorf (68) (01/05-15/10) +33389403472 (597m)</name>
  <sym>Triangle</sym>
</wpt>
<wpt lat="47.48928" lon="1.18952">
  <name>Municipal - Onzain (41) (26/04-15/09) +33254208515 (64m)</name>
  <sym>Triangle</sym>
</wpt>
<wpt lat="47.48984" lon="1.2585">
  <name></name>
  <sym>Triangle</sym>
</wpt>
<wpt lat="47.49561" lon="2.85046">
  <name>Municipal Les Germains - Belleville sur Loire (18) (01/01-31/12) +33621272440 (143m)</name>
  <sym>Triangle</sym>
</wpt>
<wpt lat="47.49891" lon="3.06868">
  <name>La Ferme Maison Salvard - Bitry (58) [51] (21/03-21/03) +33960148347 (238m)</name>
  <sym>Triangle</sym>
</wpt>
<wpt lat="47.5034" lon="1.68042">
  <name>Aire naturelle Municipale - Vernou en Sologne (41) [51] +33254982022 (88m)</name>
  <sym>Triangle</sym>
</wpt>
<wpt lat="47.50767" lon="6.35592">
  <name>Le Val de Bonnal - Rougemont (25) (07/05-07/09) +33381869087 (255m)</name>
  <sym>Triangle</sym>
</wpt>
<wpt lat="47.51052" lon="1.10482">
  <name>Parc du Val de Loire **** - Mesland (41) (15/04-20/09) +33254702718 -CCA(95m)</name>
  <sym>Triangle</sym>
</wpt>
<wpt lat="47.51775" lon="1.24805">
  <name>Les Cedres - Chouzy sur Cisse (41) [51] (01/06-30/09) +33254204696 (69m)</name>
  <sym>Triangle</sym>
</wpt>
<wpt lat="47.522" lon="5.10892">
  <name>Municipal des Capucins** - Is sur Tille [51] (01/06-30/09) +33380950208 (279m)</name>
  <sym>Triangle</sym>
</wpt>
<wpt lat="47.52535" lon="1.38664">
  <name>Municipal** - Cellettes [51] (01/06-30/09) +33254704841 (71m)</name>
  <sym>Triangle</sym>
</wpt>
<wpt lat="47.5262" lon="1.18718">
  <name></name>
  <sym>Triangle</sym>
</wpt>
<wpt lat="47.52704" lon="2.15725">
  <name>Le Bouchot - Pierrefitte sur Sauldre (41) [51] +33671576126 (127m)</name>
  <sym>Triangle</sym>
</wpt>
<wpt lat="47.52712" lon="5.6989">
  <name>Aire naturelle Municipale - Autet (70) [51] (01/07-31/08) +33384671067 (193m)</name>
  <sym>Triangle</sym>
</wpt>
<wpt lat="47.53078" lon="5.18656">
  <name>Les Sapins - Til Chatel (21) [51] (01/04-30/09) +33380951668 (284m)</name>
  <sym>Triangle</sym>
</wpt>
<wpt lat="47.5322" lon="7.01719">
  <name>Municipal du Passeloup - Joncherey (90) (01/04-31/10) +33384563263 (392m)</name>
  <sym>Triangle</sym>
</wpt>
<wpt lat="47.53294" lon="3.07333">
  <name>Municipal - Saint Amand en Puisaye (58) [51] (01/06-30/09) +33386397221 (177m)</name>
  <sym>Triangle</sym>
</wpt>
<wpt lat="47.53299" lon="2.03682">
  <name>La Grande Sologne*** - Nouan le Fuzelier (41) (01/04-15/10) +33254887022 -CCpg321-CCA(113m)</name>
  <sym>Triangle</sym>
</wpt>
<wpt lat="47.53773" lon="6.40308">
  <name>Municipal d'Autrey le Vay - Villersexel (70) [51] (15/04-15/10) +33632655005 (259m)</name>
  <sym>Triangle</sym>
</wpt>
<wpt lat="47.53822" lon="1.81511">
  <name>Municipal de La Varenne - Neung sur Beuvron (41) (Easter-30/09) +33254836852 (103m)</name>
  <sym>Triangle</sym>
</wpt>
<wpt lat="47.539" lon="7.18051">
  <name>Les Lupins - Seppois le Bas (68) (26/05-06/09) +33389256537 -CCpg295(384m)</name>
  <sym>Triangle</sym>
</wpt>
<wpt lat="47.54129" lon="2.66319">
  <name>Municipal R Coeffier - Cernoy en Berry (45) [51] +33238310078 (189m)</name>
  <sym>Triangle</sym>
</wpt>
<wpt lat="47.54291" lon="7.05759">
  <name>La ferme l'Etang Fourchu - Florimont (90) [51] +33384296159 (395m)</name>
  <sym>Triangle</sym>
</wpt>
<wpt lat="47.54379" lon="1.31114">
  <name>Le Cosson** - Chailles [51] (01/05-31/08) +33254794649 (67m)</name>
  <sym>Triangle</sym>
</wpt>
<wpt lat="47.5439" lon="2.82193">
  <name>Municipal Du Canal - Beaulieu sur Loire (45) [51] (Easter-01/11) +33238353216 (133m)</name>
  <sym>Triangle</sym>
</wpt>
<wpt lat="47.54424" lon="2.19183">
  <name>Le Parc Des Alicourts - Pierrefitte sur Sauldre (41) (02/05-06/09) +33254886334 (128m)</name>
  <sym>Triangle</sym>
</wpt>
<wpt lat="47.55081" lon="1.53775">
  <name>Indigo les Chateaux - Bracieux (41) (10/04-03/11) +33254464184 -CCA(78m)</name>
  <sym>Triangle</sym>
</wpt>
<wpt lat="47.55476" lon="1.18076">
  <name>La Ferme de Prunay - Seillac (41) [51] (30/03-16/10) +33254700201 -CCA(109m)</name>
  <sym>Triangle</sym>
</wpt>
<wpt lat="47.55518" lon="2.48694">
  <name>Les Bertrands / Argent sur Sauldre )18' [51] (01/01-31/12) +33248733479 (183m)</name>
  <sym>Triangle</sym>
</wpt>
<wpt lat="47.55833" lon="6.43569">
  <name>Le Chapeau Chinois - Villersexel (70) (01/04-10/10) +33384634060 (262m)</name>
  <sym>Triangle</sym>
</wpt>
<wpt lat="47.55999" lon="2.8342">
  <name>Du Val - Bonny sur Loire (45) +33238515771 (133m)</name>
  <sym>Triangle</sym>
</wpt>
<wpt lat="47.56694" lon="5.43156">
  <name>Municipal Le Trou D'Argot - Montigny Mornay Villeneuve Sur (21) [51] (15/04-15/10) +33380758955 (229m)</name>
  <sym>Triangle</sym>
</wpt>
<wpt lat="47.56954" lon="2.40832">
  <name>Rural La Huchette - Argent sur Sauldre (18) [51] (01/04-15/10) +33682452833 (155m)</name>
  <sym>Triangle</sym>
</wpt>
<wpt lat="47.57344" lon="7.24089">
  <name>Les Oeillets - Heimersdorf (68) +33389405130 (361m)</name>
  <sym>Triangle</sym>
</wpt>
<wpt lat="47.58168" lon="5.8758">
  <name>Municipal La Louviere - Soing Cubry Charentenay (70) [51] +33384784517 (201m)</name>
  <sym>Triangle</sym>
</wpt>
<wpt lat="47.58397" lon="5.18287">
  <name>Municipal Les Courvelles* - Selongey [51] (01/05-30/09) +33380755238 (300m)</name>
  <sym>Triangle</sym>
</wpt>
<wpt lat="47.58826" lon="5.3209">
  <name>Aire Naturelle La Chenaie - Sacquenay [51] (01/04-30/09) +33380758943 (281m)</name>
  <sym>Triangle</sym>
</wpt>
<wpt lat="47.59138" lon="1.459">
  <name>Aire naturelle Le Chatillon - Huisseau sur Cosson (41) [51] (01/05-20/09) +33254203526 (80m)</name>
  <sym>Triangle</sym>
</wpt>
<wpt lat="47.59279" lon="0.90687">
  <name>Municipal De Vauchevrier** - Chateau Renault (01/05-15/09) +33247295443 (90m)</name>
  <sym>Triangle</sym>
</wpt>
<wpt lat="47.6002" lon="2.76113">
  <name>Municipal L'Ecluse des Combles - Chatillon sur Loire (45) (26/04-30/09) +33238363594 (129m)</name>
  <sym>Triangle</sym>
</wpt>
<wpt lat="47.60257" lon="5.78222">
  <name>Le Moulin - Tincey et Pontrebeau (70) [51] (01/01-31/12) +33384784649 (202m)</name>
  <sym>Triangle</sym>
</wpt>
<wpt lat="47.60689" lon="1.37716">
  <name>Val de Blois - Vineuil (41) (01/05-30/09) +33254788205 -CCA(70m)</name>
  <sym>Triangle</sym>
</wpt>
<wpt lat="47.60908" lon="3.11953">
  <name>Municipal La Calanque - Saint Fargeau (89) (11/04-28/09) +33386740455 (219m)</name>
  <sym>Triangle</sym>
</wpt>
<wpt lat="47.61278" lon="5.96444">
  <name>Aire naturelle La Prairie - Traves (70) [51] (01/07-31/08) +33381250800 (201m)</name>
  <sym>Triangle</sym>
</wpt>
<wpt lat="47.61313" lon="7.23268">
  <name>Les Acacias - Altkirch (68) [51] (01/05-15/10) +33389406940 (346m)</name>
  <sym>Triangle</sym>
</wpt>
<wpt lat="47.62174" lon="6.4556">
  <name>Municipal Le Patis - Les Aynans (70) [51] (01/01-31/12) +33384639375 (273m)</name>
  <sym>Triangle</sym>
</wpt>
<wpt lat="47.6225" lon="6.61088">
  <name>Les Quatre Saisons- Lomont (70) [51] (01/05-15/09) +33384273439 (378m)</name>
  <sym>Triangle</sym>
</wpt>
<wpt lat="47.62317" lon="2.48501">
  <name>Municipal Plancherotte - Coullons (45) (01/04-31/10) +33238292042 (157m)</name>
  <sym>Triangle</sym>
</wpt>
<wpt lat="47.62529" lon="5.50426">
  <name>Municipal - Champlitte (70) [51] (01/06-30/09) +33384676410 (259m)</name>
  <sym>Triangle</sym>
</wpt>
<wpt lat="47.63024" lon="6.12851">
  <name>International du Lac - Vesoul (70) (01/01-31/12) +33384762286 (214m)</name>
  <sym>Triangle</sym>
</wpt>
<wpt lat="47.63462" lon="5.757">
  <name>Municipal La Fontaine Aux Fees - Renaucourt (70) [51] (15/05-15/09) +33384920914 (224m)</name>
  <sym>Triangle</sym>
</wpt>
<wpt lat="47.64145" lon="2.61493">
  <name></name>
  <sym>Triangle</sym>
</wpt>
<wpt lat="47.64156" lon="2.72561">
  <name>Le Martinet - Briare-Bedoise (45) (04/04-28/09) +33238312450 -CCA(127m)</name>
  <sym>Triangle</sym>
</wpt>
<wpt lat="47.64788" lon="1.61067">
  <name>Municipal Du Cosson - Crouy sur Cosson (41) (01/04-15/10) +33254870881 (84m)</name>
  <sym>Triangle</sym>
</wpt>
<wpt lat="47.65332" lon="6.86453">
  <name></name>
  <sym>Triangle</sym>
</wpt>
<wpt lat="47.65442" lon="5.67729">
  <name>Domaine de la Pierre Percee- Fouvent (70) [51] +33384313046 (274m)</name>
  <sym>Triangle</sym>
</wpt>
<wpt lat="47.66178" lon="5.97525">
  <name>La Saone Jolie - Scey sur Saone et Saint Albin (70) [51] (15/06-01/09) +33384688507 (209m)</name>
  <sym>Triangle</sym>
</wpt>
<wpt lat="47.66612" lon="1.5292">
  <name>Chateau Des Marais**** - Muides s/Loire (10/05-15/09) +33254870542 (85m)</name>
  <sym>Triangle</sym>
</wpt>
<wpt lat="47.6682" lon="2.80598">
  <name>Municipal La Trezee - Ouzouer sur Trezee (45) (01/04-31/10) +33238319460 (144m)</name>
  <sym>Triangle</sym>
</wpt>
<wpt lat="47.67213" lon="1.52629">
  <name>Municipal Belle Vue** - Muides s/Loire (01/05-15/09) +33254870156 (78m)</name>
  <sym>Triangle</sym>
</wpt>
<wpt lat="47.67419" lon="5.01806">
  <name>Aire naturelle Municipale - Grancey Le Chateau Neuvelle (21) [51] (15/06-15/09) +33380756030 (417m)</name>
  <sym>Triangle</sym>
</wpt>
<wpt lat="47.67447" lon="2.25639">
  <name>Municipal Les Pres Bas - Isdes (45) [51] (01/04-31/10) +33238291082 (143m)</name>
  <sym>Triangle</sym>
</wpt>
<wpt lat="47.68153" lon="6.03971">
  <name>Municipal La Maladiere - Port sur Saone (70) (15/05-15/09) +33384915132 (209m)</name>
  <sym>Triangle</sym>
</wpt>
<wpt lat="47.6822" lon="2.62329">
  <name>Touristique De Gien - Gien (45) (02/03-10/11) +33238671250 -CCA-BD_FR-F.065(126m)</name>
  <sym>Triangle</sym>
</wpt>
<wpt lat="47.68338" lon="2.13492">
  <name>Municipal - Sennely (45) [51] (15/03-15/10) +33238496012 (125m)</name>
  <sym>Triangle</sym>
</wpt>
<wpt lat="47.68555" lon="2.3438">
  <name>Municipal Aire naturelle Les Farnaults - Villemurlin (45) [51] (01/04-30/09) +33238362512 (135m)</name>
  <sym>Triangle</sym>
</wpt>
<wpt lat="47.68568" lon="1.4871">
  <name>La Grenouillere**** - Suevres (41) (20/04-15/09) +33254878037 -CCA(90m)</name>
  <sym>Triangle</sym>
</wpt>
<wpt lat="47.68577" lon="5.34466">
  <name>Rural Municipal De la Pelletiere - Dommarien (52) [51] (01/06-15/09) +33325875881 (275m)</name>
  <sym>Triangle</sym>
</wpt>
<wpt lat="47.68673" lon="1.55811">
  <name>l'Amitie - Saint Laurent Nouan (41) (02/01-24/12) +33254870152 (77m)</name>
  <sym>Triangle</sym>
</wpt>
<wpt lat="47.68845" lon="6.38516">
  <name>La ferme Le Chateau Gaillard - Genevreuille (70) [51] (01/04-30/09) +33384743529 (368m)</name>
  <sym>Triangle</sym>
</wpt>
<wpt lat="47.68878" lon="6.73204">
  <name>La Louviere - Champagney (70) (15/04-15/09) +33384232024 (418m)</name>
  <sym>Triangle</sym>
</wpt>
<wpt lat="47.6965" lon="0.9157">
  <name>Les Rochelles - Prunay Cassereau (41) [51] (15/04-15/10) +33676932061 (131m)</name>
  <sym>Triangle</sym>
</wpt>
<wpt lat="47.70268" lon="2.72134">
  <name>Bois Girault - Arrabloy (45) (15/03-10/10) +33238673690 (183m)</name>
  <sym>Triangle</sym>
</wpt>
<wpt lat="47.7048" lon="2.94805">
  <name>Municipal La Pepiniere - Bleneau (89) [51] (01/04-30/09) +33386749373 (175m)</name>
  <sym>Triangle</sym>
</wpt>
<wpt lat="47.70573" lon="6.67456">
  <name>Les Ballastieres - Champagney (70) (01/04-31/10) +33384231122 -CCpg294(361m)</name>
  <sym>Triangle</sym>
</wpt>
<wpt lat="47.71191" lon="5.70627">
  <name>A la ferme A-Rigaud - Bourguignon Les Morey (70) [51] (15/04-20/09) +33384910858 (294m)</name>
  <sym>Triangle</sym>
</wpt>
<wpt lat="47.71297" lon="2.4934">
  <name>Ferme de Rochefort - Lion en Sullias (45) [51] +33238369731 (132m)</name>
  <sym>Triangle</sym>
</wpt>
<wpt lat="47.72224" lon="7.22562">
  <name>La Chaumiere** - Heimsbrunn (01/01-31/12) +33389819343 (274m)</name>
  <sym>Triangle</sym>
</wpt>
<wpt lat="47.72529" lon="1.93351">
  <name>Municipal du Cosson - La Ferte Saint Aubin (45) (25/04-28/09) +33238765590 (102m)</name>
  <sym>Triangle</sym>
</wpt>
<wpt lat="47.72582" lon="2.01501">
  <name>La ferme Le Ciran - Menestreau en Villette (45) [51] (01/05-30/09) +33238769093 (136m)</name>
  <sym>Triangle</sym>
</wpt>
<wpt lat="47.73465" lon="7.32429">
  <name>Municipal l'Ill*** - Mulhouse (68) (01/04-15/10) +33389062066 -CCA(242m)</name>
  <sym>Triangle</sym>
</wpt>
<wpt lat="47.73548" lon="7.01502">
  <name>Lac de la Seigneurie*** - Lachapelle s/Rougemont (90) (01/04-31/10) +33384230013 -CCA(418m)</name>
  <sym>Triangle</sym>
</wpt>
<wpt lat="47.74007" lon="5.3063">
  <name>Du Lac de la Vingeanne - Villegusien le Lac (52) (15/03-15/10) +33325884524 -CCA(301m)</name>
  <sym>Triangle</sym>
</wpt>
<wpt lat="47.74321" lon="2.88508">
  <name>Municipal Les Lancieres - Rogny les Sept Ecluses (89) [51] (01/05-30/09) +33674434304 (142m)</name>
  <sym>Triangle</sym>
</wpt>
<wpt lat="47.74677" lon="7.12444">
  <name>Les Castors*** - Burnhaupt le Haut (01/04-31/10) +33389487858 -CCpg296(315m)</name>
  <sym>Triangle</sym>
</wpt>
<wpt lat="47.7475" lon="0.86351">
  <name>Municipal Les Reclusages - Montoire sur le Loir (41) (26/04-30/09) +33254850253 (72m)</name>
  <sym>Triangle</sym>
</wpt>
<wpt lat="47.75012" lon="5.77349">
  <name>Le Lac - Preigney (70) [51] (01/04-30/09) +33384685537 (281m)</name>
  <sym>Triangle</sym>
</wpt>
<wpt lat="47.75139" lon="6.16663">
  <name>Rural de Collardey Claude - Le Val Saint Eloi (70) [51] (01/05-31/10) +33384689155 (348m)</name>
  <sym>Triangle</sym>
</wpt>
<wpt lat="47.75484" lon="6.58683">
  <name>La Bergereine - Melisey (70) [51] (01/04-31/10) +33623368716 (329m)</name>
  <sym>Triangle</sym>
</wpt>
<wpt lat="47.75549" lon="6.65276">
  <name>La Broche - Fresse (70) [51] (01/04-15/10) +33384633140 (472m)</name>
  <sym>Triangle</sym>
</wpt>
<wpt lat="47.75581" lon="7.09882">
  <name>La Doller*** - Guewenheim (01/04-31/10) +33389825690 (330m)</name>
  <sym>Triangle</sym>
</wpt>
<wpt lat="47.75825" lon="6.64883">
  <name>Le Creux - Fresse (70) [51] +33384633159 (460m)</name>
  <sym>Triangle</sym>
</wpt>
<wpt lat="47.75827" lon="3.09982">
  <name>Le Bois Guillaume - Villeneuve les Genets (89) (01/01-31/12) +33386454541 (198m)</name>
  <sym>Triangle</sym>
</wpt>
<wpt lat="47.75973" lon="3.06821">
  <name>Le Petit Villars - Champignelles (89) [51] +33386451040 (177m)</name>
  <sym>Triangle</sym>
</wpt>
<wpt lat="47.77154" lon="2.36226">
  <name>Jardin de Sully - Saint Pere sur Loire (45) (01/01-31/12) +33238363594 -CCA(115m)</name>
  <sym>Triangle</sym>
</wpt>
<wpt lat="47.77458" lon="2.49577">
  <name>De la Foret - Ouzouer sur Loire (45) (01/01-31/12) +33238356267 (146m)</name>
  <sym>Triangle</sym>
</wpt>
<wpt lat="47.7755" lon="6.58099">
  <name>La Pierre - Melisey (70) (01/05-30/09) +33384632308 (376m)</name>
  <sym>Triangle</sym>
</wpt>
<wpt lat="47.77686" lon="1.64302">
  <name>Municipal du Val de Flux** - Beaugency (15/04-31/08) +33238445039 (84m)</name>
  <sym>Triangle</sym>
</wpt>
<wpt lat="47.77821" lon="6.99111">
  <name>Municipal - Masevaux (68) (15/03-31/10) +33389824229 (409m)</name>
  <sym>Triangle</sym>
</wpt>
<wpt lat="47.77873" lon="6.57214">
  <name>Moulin Begeot - Ecromagny (70) [51] (01/04-30/09) +33384632576 (361m)</name>
  <sym>Triangle</sym>
</wpt>
<wpt lat="47.77993" lon="6.94812">
  <name>A la ferme Auberge de l'Entzenbach (tentes seulement) - Niederbruck (68) [51] +33389824549 (626m)</name>
  <sym>Triangle</sym>
</wpt>
<wpt lat="47.78445" lon="5.06488">
  <name>Municipal Les Charbonnieres - Auberive (52) [51] (15/04-01/10) +33325842113 (352m)</name>
  <sym>Triangle</sym>
</wpt>
<wpt lat="47.78646" lon="6.01539">
  <name>La Tuilerie - Baulay (70) [51] (15/03-01/11) +33384687103 (228m)</name>
  <sym>Triangle</sym>
</wpt>
<wpt lat="47.79131" lon="1.07634">
  <name>Au Coeur de Vendome - Vendome (41) (18/04-01/11) +33254770027 -CCpg316-CCA(80m)</name>
  <sym>Triangle</sym>
</wpt>
<wpt lat="47.79394" lon="3.04208">
  <name>A la ferme Des Maisons Blanches - Champignelles (89) [51] (0105-30/09) +33386451796 (190m)</name>
  <sym>Triangle</sym>
</wpt>
<wpt lat="47.7954" lon="5.23223">
  <name>Ferme de la Croisee - Flagey (52) [51] (01/04-15/10) +33687249619 -CCA(443m)</name>
  <sym>Triangle</sym>
</wpt>
<wpt lat="47.80206" lon="0.95829">
  <name>Municipal La Bonne Aventure - Thore la Rochette (41) (014/05-30/09) +33254720059 (74m)</name>
  <sym>Triangle</sym>
</wpt>
<wpt lat="47.80448" lon="7.16999">
  <name>Les Cigognes**** - Cernay (01/04-15/10) +33389755697 -CCA(298m)</name>
  <sym>Triangle</sym>
</wpt>
<wpt lat="47.80651" lon="2.29474">
  <name>Le Port - Saint Benoit sur Loire (45) [51] (30/05-28/09) +33238351234 (109m)</name>
  <sym>Triangle</sym>
</wpt>
<wpt lat="47.80962" lon="6.73655">
  <name>Les Veneys - Miellin (70) [51] (15/04-15/09) +33384204536 (578m)</name>
  <sym>Triangle</sym>
</wpt>
<wpt lat="47.80991" lon="1.94325">
  <name>Naturist - Les Bogues - Saint Cyr en Val (45) (15/06-15/09) +33238632982 (117m)</name>
  <sym>Triangle</sym>
</wpt>
<wpt lat="47.81326" lon="5.32117">
  <name>Municipal La Croix d'Arles** - Langres (52) (15/03-31/10) +33325882402 -CCA(459m)</name>
  <sym>Triangle</sym>
</wpt>
<wpt lat="47.81622" lon="2.16384">
  <name>Le Petit Forcelle - Tigy (45) [51] (01/04-31/10) +33238572964 (102m)</name>
  <sym>Triangle</sym>
</wpt>
<wpt lat="47.8172" lon="2.84433">
  <name>Municipal De la Lanciere - Chatillon Coligny (45) (01/04-30/09) +33238925473 (122m)</name>
  <sym>Triangle</sym>
</wpt>
<wpt lat="47.81947" lon="2.40153">
  <name>La Foret - Les Bordes (45) +33238355836 (138m)</name>
  <sym>Triangle</sym>
</wpt>
<wpt lat="47.81976" lon="6.93496">
  <name>Rural de Hagenbach - Rimbach Pres Masevaux (68) [51] (01/01-31/12) +33389820013 (554m)</name>
  <sym>Triangle</sym>
</wpt>
<wpt lat="47.82311" lon="6.38161">
  <name>Chatigny - Luxeuil les Bains (70) (01/03-31/10) +33384939797 (327m)</name>
  <sym>Triangle</sym>
</wpt>
<wpt lat="47.83135" lon="2.37614">
  <name>A la Ferme Les Cloutils - Bray-en-Val (45) [51] (01/04-30/09) +33238290358 (130m)</name>
  <sym>Triangle</sym>
</wpt>
<wpt lat="47.83203" lon="0.75243">
  <name>Municipal Le Val de Braye - Besse sur Braye (72) (29/03-31/10) +33243353113 -CCA(70m)</name>
  <sym>Triangle</sym>
</wpt>
<wpt lat="47.8336" lon="7.16558">
  <name>Les Sources - Wattwiller (68) (12/04-30/09) +33389754494 (480m)</name>
  <sym>Triangle</sym>
</wpt>
<wpt lat="47.84374" lon="5.91754">
  <name>Le Clolois - Jussey (70) [51] (15/06-15/09) +33384681149 (212m)</name>
  <sym>Triangle</sym>
</wpt>
<wpt lat="47.84611" lon="6.19237">
  <name>A la ferme de la Renaudine - Dampierre les Conflans (70) [51] (01/04-01/11) +33384498234 (296m)</name>
  <sym>Triangle</sym>
</wpt>
<wpt lat="47.85088" lon="7.03063">
  <name>La Mine d'Argent - Moosch (68) (15/04-15/10) +33389823066 (458m)</name>
  <sym>Triangle</sym>
</wpt>
<wpt lat="47.8554" lon="6.81114">
  <name>Les Deux Ballons - Saint Maurice sur Moselle (88) (19/04-25/09) +33329251714 -CCA(537m)</name>
  <sym>Triangle</sym>
</wpt>
<wpt lat="47.856" lon="1.92543">
  <name>Municipal** - Olivet [51] (10/04-10/10) +33238635394 (93m)</name>
  <sym>Triangle</sym>
</wpt>
<wpt lat="47.85666" lon="4.99765">
  <name>Municipal La Vallee - Rouvres sur Aube (52) [51] (01/01-31/12) +33325842439 (299m)</name>
  <sym>Triangle</sym>
</wpt>
<wpt lat="47.85668" lon="2.22988">
  <name>La Maltournee - Chateauneuf sur Loire (45) (07/04-28/10) +33238584246 (101m)</name>
  <sym>Triangle</sym>
</wpt>
<wpt lat="47.86024" lon="5.32985">
  <name>Municipal Navarre* - Langres (06/03-31/10) +33325873792 (463m)</name>
  <sym>Triangle</sym>
</wpt>
<wpt lat="47.86253" lon="2.55392">
  <name>Aire naturelle Le Moulin Rose - Montereau (45) [51] (01/05-30/10) +33238877167 (118m)</name>
  <sym>Triangle</sym>
</wpt>
<wpt lat="47.86894" lon="2.11563">
  <name>l'Isle aux Moulins - Jargeau (45) (01/04-31/10) +33238597004 -CCA(102m)</name>
  <sym>Triangle</sym>
</wpt>
<wpt lat="47.87187" lon="5.38085">
  <name></name>
  <sym>Triangle</sym>
</wpt>
<wpt lat="47.8726" lon="7.17336">
  <name>La Sapiniere - Wuenheim (68) (01/04-30/09) +33389767940 (422m)</name>
  <sym>Triangle</sym>
</wpt>
<wpt lat="47.8745" lon="2.44473">
  <name>l'Etang Des Bois - Lorris (45) (01/04-30/09) +33238923200 (135m)</name>
  <sym>Triangle</sym>
</wpt>
<wpt lat="47.87736" lon="6.77922">
  <name>Municipal Bon Accueil - Fresse sur Moselle (88) [51] (01/04-11/11) +33329250898 (497m)</name>
  <sym>Triangle</sym>
</wpt>
<wpt lat="47.88" lon="7.01011">
  <name>Les Bouleaux - Ranspach (68) (01/12-31/10) +33389826470 -CCA(422m)</name>
  <sym>Triangle</sym>
</wpt>
<wpt lat="47.88047" lon="0.80244">
  <name>Du Pre Aux Moines - Savigny sur Braye (41) (01/01-31/10) +33254237120 (78m)</name>
  <sym>Triangle</sym>
</wpt>
<wpt lat="47.88067" lon="7.05889">
  <name>Au Relais du Grand Ballon - Geishouse (68) [51] (01/01-31/12) +33389823047 (666m)</name>
  <sym>Triangle</sym>
</wpt>
<wpt lat="47.88162" lon="6.94429">
  <name>Municipal Benelux-Bale - Urbes (68) (01/04-31/10) +33389827876 (455m)</name>
  <sym>Triangle</sym>
</wpt>
<wpt lat="47.88197" lon="5.77944">
  <name>Camp'Eco - Voisey (52) [51] (15/04-30/09) +33325849791 (260m)</name>
  <sym>Triangle</sym>
</wpt>
<wpt lat="47.88581" lon="2.02803">
  <name>Municipal les Patures - Checy (45) [51] (16/05-29/09) +33238911327 (96m)</name>
  <sym>Triangle</sym>
</wpt>
<wpt lat="47.88873" lon="1.20259">
  <name>La Maladrerie - Freteval (41) (15/03-31/10) +33254826275 (87m)</name>
  <sym>Triangle</sym>
</wpt>
<wpt lat="47.88888" lon="6.85758">
  <name>De Champe - Bussang (88) (01/01-31/12) +33329616151 -CCpg302-CCA(600m)</name>
  <sym>Triangle</sym>
</wpt>
<wpt lat="47.88893" lon="6.75683">
  <name>Municipal Clos des Chaumes - Le Thillot (88) (01/01-31/12) +33329251030 (482m)</name>
  <sym>Triangle</sym>
</wpt>
<wpt lat="47.89061" lon="3.09333">
  <name>Les Platanes*** - Charny (89) (01/04-31/10) +33386918360 (133m)</name>
  <sym>Triangle</sym>
</wpt>
<wpt lat="47.89296" lon="6.73816">
  <name>Le Clos Martin - Ramonchamp (88) [51] (01/04-15/09) +33329250538 (463m)</name>
  <sym>Triangle</sym>
</wpt>
<wpt lat="47.89496" lon="1.86215">
  <name>Municipal Gaston Marchand** - Saint Jean de la Ruelle [51] (01/07-31/08) +33238883939 (96m)</name>
  <sym>Triangle</sym>
</wpt>
<wpt lat="47.89509" lon="5.39487">
  <name>Hautoreille** - Bannes (52) (03/01-30/11) +33325848340 -CCA(395m)</name>
  <sym>Triangle</sym>
</wpt>
<wpt lat="47.89856" lon="2.62519">
  <name>La Viennerie - Oussoy en Gatinais (45) [51] +33238963147 (103m)</name>
  <sym>Triangle</sym>
</wpt>
<wpt lat="47.90016" lon="6.05769">
  <name>La Jonquille - Hurecourt (70) [51] (01/04-01/10) +33689698231 (288m)</name>
  <sym>Triangle</sym>
</wpt>
<wpt lat="47.90062" lon="6.98228">
  <name>Le Wagga - Oderen (68) [51] +33389282432 (442m)</name>
  <sym>Triangle</sym>
</wpt>
<wpt lat="47.90086" lon="7.23631">
  <name>Le Florival*** - Issenheim (15/04-15/10) +33389742047 (265m)</name>
  <sym>Triangle</sym>
</wpt>
<wpt lat="47.9024" lon="5.30221">
  <name>Municipal* - Humes Jorquenay [51] (01/04-30/09) +33325875065 (319m)</name>
  <sym>Triangle</sym>
</wpt>
<wpt lat="47.90293" lon="1.22832">
  <name>Municipal La Varenne - Moree (41) [51] (01/04-31/10) +33254891515 (88m)</name>
  <sym>Triangle</sym>
</wpt>
<wpt lat="47.90572" lon="2.39344">
  <name>Val de Vie - Chatenoy (45) (01/04-01/11) +33238558271 (131m)</name>
  <sym>Triangle</sym>
</wpt>
<wpt lat="47.90712" lon="6.78158">
  <name>l'Oree du Bois - Le Menil (88) [51] (01/01-31/12) +33672385276 (536m)</name>
  <sym>Triangle</sym>
</wpt>
<wpt lat="47.91744" lon="6.52565">
  <name>La Creche - Le Val d'Ajol (88) [51] +33610481085 (451m)</name>
  <sym>Triangle</sym>
</wpt>
<wpt lat="47.9247" lon="6.47545">
  <name>Municipal les Oeuvres- Le Val d'Ajol (88) +33329665517 (348m)</name>
  <sym>Triangle</sym>
</wpt>
<wpt lat="47.92531" lon="0.84501">
  <name>Municipal - Sarge sur Braye (41) +33254727265 (88m)</name>
  <sym>Triangle</sym>
</wpt>
<wpt lat="47.92686" lon="0.74413">
  <name>Le Lac - Saint Calais (72) (01/04-15/10) +33243350481 (100m)</name>
  <sym>Triangle</sym>
</wpt>
<wpt lat="47.92815" lon="2.43461">
  <name>A la Ferme La Charpenterie- Beauchamps sur Huillard (45) [51] +33678969967 (116m)</name>
  <sym>Triangle</sym>
</wpt>
<wpt lat="47.93368" lon="6.17066">
  <name>La Grande Curtille -Fontenois la Ville (70) [51] +33384929413 (296m)</name>
  <sym>Triangle</sym>
</wpt>
<wpt lat="47.93612" lon="2.98729">
  <name>Municipal Les Patures - Trigueres (45) [51] (01/03-01/10) +33238940023 (116m)</name>
  <sym>Triangle</sym>
</wpt>
<wpt lat="47.94364" lon="6.95453">
  <name>Le Schlossberg - Kruth (68) +33389822676 (518m)</name>
  <sym>Triangle</sym>
</wpt>
<wpt lat="47.94799" lon="6.63296">
  <name>Le Pont de Maxonchamp - Rupt sur Moselle (88) +33329243065 (409m)</name>
  <sym>Triangle</sym>
</wpt>
<wpt lat="47.95062" lon="5.00505">
  <name>Municipal Le Vieux Moulin* - Arc en Barrois [51] (01/04-30/09) +33325025133 (266m)</name>
  <sym>Triangle</sym>
</wpt>
<wpt lat="47.95253" lon="6.752">
  <name>Lac de la Moselotte - Saulxures sur Moselotte (88) +33329245656 (452m)</name>
  <sym>Triangle</sym>
</wpt>
<wpt lat="47.9549" lon="7.29623">
  <name>Municipal** - Rouffach (01/05-30/09) +33389497813 (204m)</name>
  <sym>Triangle</sym>
</wpt>
<wpt lat="47.95643" lon="6.21142">
  <name>Fontenoy - Fontenoy le Chateau (88) (15/04-30/09) +33684485148 (330m)</name>
  <sym>Triangle</sym>
</wpt>
<wpt lat="47.95734" lon="5.74013">
  <name>Montmorency - Bourbonne les Bains (52) +33620425323 (276m)</name>
  <sym>Triangle</sym>
</wpt>
<wpt lat="47.95813" lon="7.02957">
  <name>La ferme Salzbach - Sondernach (68) [51] +33389776366 (1147m)</name>
  <sym>Triangle</sym>
</wpt>
<wpt lat="47.95857" lon="2.28143">
  <name>Etag de la Vallee - Vitry aux Loges (45) (01/01-31/12) +33238593577 (130m)</name>
  <sym>Triangle</sym>
</wpt>
<wpt lat="47.96426" lon="6.8481">
  <name>Les Tetes - Cornimont (88) [51] +33329240563 (541m)</name>
  <sym>Triangle</sym>
</wpt>
<wpt lat="47.96538" lon="6.41648">
  <name>Le Fraiteux - Plombieres les Bains-Ruaux (88) [51] (15/03-31/10) +33329660071 -CCA(530m)</name>
  <sym>Triangle</sym>
</wpt>
<wpt lat="47.96726" lon="6.44655">
  <name>l'Hermitage - Plombieres les Bains (88) [51] (15/04-15/10) +33329300187 -CCA(525m)</name>
  <sym>Triangle</sym>
</wpt>
<wpt lat="47.96918" lon="6.6706">
  <name>A la ferme de Reherrey - Vecoux (88) [51] +33329610625 (494m)</name>
  <sym>Triangle</sym>
</wpt>
<wpt lat="47.97295" lon="1.23325">
  <name>Aire naturelle les Fouquets - Saint Jean Froidmentel (41) [51] (01/04-30/09) +33254826697 (124m)</name>
  <sym>Triangle</sym>
</wpt>
<wpt lat="47.97395" lon="6.60756">
  <name>A la ferme les Moineaux - Dommartin les Remiremont (88) [51] +33329610030 (624m)</name>
  <sym>Triangle</sym>
</wpt>
<wpt lat="47.98054" lon="7.21903">
  <name>La Vallee Noble - Osenbach (68) (01/03-31/10) +33389470522 (408m)</name>
  <sym>Triangle</sym>
</wpt>
<wpt lat="47.98278" lon="7.01845">
  <name>Municipal du Langenwasen - Mittlach (68) (01/05-30/09) +33389776377 (657m)</name>
  <sym>Triangle</sym>
</wpt>
<wpt lat="47.98783" lon="6.67348">
  <name>Les Granges de Franould - Dommartin les Remieremont (88) [51] +33329232938 (591m)</name>
  <sym>Triangle</sym>
</wpt>
<wpt lat="47.99705" lon="7.0595">
  <name>Im Berg - Sondernach (tentes seulement) (68) [51] +33608541924 (855m)</name>
  <sym>Triangle</sym>
</wpt>
<wpt lat="47.99878" lon="6.91823">
  <name>Du Haut des Bluches - La Bresse (88) (13/12-11/11) +33329256480 -CCA(723m)</name>
  <sym>Triangle</sym>
</wpt>
<wpt lat="48.00066" lon="5.49582">
  <name>Municipal du Chateau*** - Montigny le Roi (52) (15/04-30/09) +33325873893 -CCA(423m)</name>
  <sym>Triangle</sym>
</wpt>
<wpt lat="48.00752" lon="6.26886">
  <name>Les Pins - Bains les Bains (88) [51] (01/04-30/10) +33329362049 (332m)</name>
  <sym>Triangle</sym>
</wpt>
<wpt lat="48.01087" lon="6.73165">
  <name>Natur du Mettey - Vagney (88) (01/05-30/09) +33329621686 -CCpg303-CCA(439m)</name>
  <sym>Triangle</sym>
</wpt>
<wpt lat="48.01698" lon="7.29981">
  <name>A la Ferme Bannwarth - Obermorschwihr (68) [51] (10/05-30/09) +33389493087 (245m)</name>
  <sym>Triangle</sym>
</wpt>
<wpt lat="48.01759" lon="7.3011">
  <name>A la Ferme Le Vignoble - Obermorschwihr (68) [51] (01/04-30/10) +33389493202 (243m)</name>
  <sym>Triangle</sym>
</wpt>
<wpt lat="48.03107" lon="7.11354">
  <name>Les Amis de la Nature de Munster - Luttenbach pres Munster (68) (01/02-30/11) +33389773860 (407m)</name>
  <sym>Triangle</sym>
</wpt>
<wpt lat="48.03479" lon="6.96263">
  <name>Belle Hutte - La Bresse (88) (16/12-15/11) +33329254975 (880m)</name>
  <sym>Triangle</sym>
</wpt>
<wpt lat="48.04266" lon="7.29965">
  <name>Municipal Les Trois Chateaux*** - Eguisheim (68) (01/04-23/12) +33389231939 -CCA(222m)</name>
  <sym>Triangle</sym>
</wpt>
<wpt lat="48.04296" lon="6.03921">
  <name>L'Oiseau Libre - Claudon (88) [51] (01/06-30/09) +33329070066 (270m)</name>
  <sym>Triangle</sym>
</wpt>
<wpt lat="48.0434" lon="7.15154">
  <name>Le Parc de la Fecht - Munster (68) (27/04-30/09) +33499572121 -CCpg298(367m)</name>
  <sym>Triangle</sym>
</wpt>
<wpt lat="48.04402" lon="6.08011">
  <name>La Clariere du Verbamont - Claudon (88) [51] (15/04-15/10) +33950186452 (344m)</name>
  <sym>Triangle</sym>
</wpt>
<wpt lat="48.04469" lon="5.48616">
  <name>A la ferme Perrot - Rangecourt [51] +33325903682 (370m)</name>
  <sym>Triangle</sym>
</wpt>
<wpt lat="48.04511" lon="7.18066">
  <name>Beau Rivage - Gunsbach (68) (01/04-20/10) +33389774462 (333m)</name>
  <sym>Triangle</sym>
</wpt>
<wpt lat="48.0476" lon="6.86866">
  <name>Les Myrtilles - Gerardmer (88) [51] (01/05-30/09) +33329632138 (770m)</name>
  <sym>Triangle</sym>
</wpt>
<wpt lat="48.04851" lon="5.22256">
  <name>Centre Lothlorien - Foulain (52) [51] +33325034086 (303m)</name>
  <sym>Triangle</sym>
</wpt>
<wpt lat="48.0488" lon="7.20778">
  <name>Aire naturelle Du Moulin - Wihr au Val (68) [51] (15/06-15/09) +33389710626 (307m)</name>
  <sym>Triangle</sym>
</wpt>
<wpt lat="48.04947" lon="6.10612">
  <name>Aire naturelle de l'Ecolonie - Hennezel (88) [51] (01/03-31/10) +33329070027 (369m)</name>
  <sym>Triangle</sym>
</wpt>
<wpt lat="48.05158" lon="7.20508">
  <name>La Route Verte - Wihr au Val (68) (25/04-30/09) +33389711010 (320m)</name>
  <sym>Triangle</sym>
</wpt>
<wpt lat="48.06033" lon="5.56418">
  <name>La Ferme Saint Nicolas - Choiseul [51] +33325013157 (345m)</name>
  <sym>Triangle</sym>
</wpt>
<wpt lat="48.06099" lon="6.18935">
  <name>Entre les Sources - Grandrupt de Bains (88) [51] (01/05-31/08) +33329309738 (417m)</name>
  <sym>Triangle</sym>
</wpt>
<wpt lat="48.06234" lon="6.9691">
  <name>La Vologne - Xonrupt Longemer (88) (01/05-15/09) +33329608723 (756m)</name>
  <sym>Triangle</sym>
</wpt>
<wpt lat="48.06243" lon="6.96465">
  <name>Verte Vallee - Xonrupt Longemer (88) (15/12-01/11) +33329632177 -CCA(741m)</name>
  <sym>Triangle</sym>
</wpt>
<wpt lat="48.06303" lon="6.95668">
  <name>Municipal du Lac - Xonrupt Longemer (88) (15/04-15/10) +33673641576 (747m)</name>
  <sym>Triangle</sym>
</wpt>
<wpt lat="48.06312" lon="6.8558">
  <name>Les Sapins - Gerardmer (88) (01/04-10/10) +33329631501 -CCA(666m)</name>
  <sym>Triangle</sym>
</wpt>
<wpt lat="48.06348" lon="6.95869">
  <name>l'Oree du Bois - Xonrupt Longemer (88) [51] +33329632982 (738m)</name>
  <sym>Triangle</sym>
</wpt>
<wpt lat="48.0641" lon="6.96246">
  <name>La Grange Mausalaine - Xonrupt Longemer (88) (01/05-30/09) +33329630715 (746m)</name>
  <sym>Triangle</sym>
</wpt>
<wpt lat="48.06482" lon="6.85375">
  <name>Le Ramberchamp - Gerardmer (88) (03/04-30/09) +33329630382 (660m)</name>
  <sym>Triangle</sym>
</wpt>
<wpt lat="48.06759" lon="6.94851">
  <name>Les Jonquilles - Xonrupt Longemer (88) (17/04-30/09) +33329633401 -CCA(749m)</name>
  <sym>Triangle</sym>
</wpt>
<wpt lat="48.06813" lon="6.94804">
  <name>Belle Rive - Xonrupt Longemer (88) +33329633112 (746m)</name>
  <sym>Triangle</sym>
</wpt>
<wpt lat="48.06981" lon="6.80714">
  <name>Les Granges Bas - Gerardmer (88) (20/12-19/10) +33329631203 (628m)</name>
  <sym>Triangle</sym>
</wpt>
<wpt lat="48.07055" lon="6.9458">
  <name>La Chaumiere-Bellevue - Xonrupt Longemer (88) [51] (01/01-31/12) +33329631330 (757m)</name>
  <sym>Triangle</sym>
</wpt>
<wpt lat="48.07308" lon="6.92689">
  <name>Les Sorbiers - Xonrupt Longemer (88) [51] +33329633604 (762m)</name>
  <sym>Triangle</sym>
</wpt>
<wpt lat="48.07826" lon="6.94261">
  <name>Municipal Domaine de Longemer- Xonrupt Longemer (88) (01/01-14/11-12/12-31/12) +33329632710 (736m)</name>
  <sym>Triangle</sym>
</wpt>
<wpt lat="48.07895" lon="7.10787">
  <name>Rural Chez Chantal et Dany - Soultzeren (68) [51] (Easter-30/10) +33389770209 (741m)</name>
  <sym>Triangle</sym>
</wpt>
<wpt lat="48.08413" lon="6.94873">
  <name>A l'Eau Vive - Xonrupt Longemer (88) (01/01-31/12) +33603740077 (755m)</name>
  <sym>Triangle</sym>
</wpt>
<wpt lat="48.08521" lon="7.27239">
  <name>Le Medieval - Turckheim (68) (04/04-26/10) +33389270200 -CCA(237m)</name>
  <sym>Triangle</sym>
</wpt>
<wpt lat="48.08726" lon="7.30657">
  <name>Aire Naturelle Benzen - Logelbach (68) [51] +33389274038 (218m)</name>
  <sym>Triangle</sym>
</wpt>
<wpt lat="48.0889" lon="6.7285">
  <name>Le Noirrupt - Le Tholy (88) (01/05-30/09) +33329618127 -CCA(616m)</name>
  <sym>Triangle</sym>
</wpt>
<wpt lat="48.09299" lon="7.19743">
  <name>Municipal Les Deux Hohnack - Labaroche (68) (01/04-30/09) +33962386882 (785m)</name>
  <sym>Triangle</sym>
</wpt>
<wpt lat="48.09436" lon="6.04652">
  <name>Val des Rochottes - Darney (88) [51] (01/06-15/09) +33329093345 (286m)</name>
  <sym>Triangle</sym>
</wpt>
<wpt lat="48.09685" lon="5.50802">
  <name>Municipal du Mont Clair - Clefmont (52) [51] (30/04-15/10) +33325313163 (467m)</name>
  <sym>Triangle</sym>
</wpt>
<wpt lat="48.09859" lon="6.76986">
  <name>Rural La Houbette - Liezey (88) [51] (15/04-30/09) +33329245639 (708m)</name>
  <sym>Triangle</sym>
</wpt>
<wpt lat="48.11519" lon="7.12101">
  <name>Les Moraines - Pairis (68) [51] (01/01-31/12) +33389712519 (694m)</name>
  <sym>Triangle</sym>
</wpt>
<wpt lat="48.11765" lon="7.12286">
  <name>A la Ferme Les Bouleaux - Orbey (68) [51] (01/04-31/10) +33389712273 (691m)</name>
  <sym>Triangle</sym>
</wpt>
<wpt lat="48.11859" lon="5.13239">
  <name>Municipal Parc Sainte Marie** - Chaumont (02/05-30/09) +33325321198 (278m)</name>
  <sym>Triangle</sym>
</wpt>
<wpt lat="48.1188" lon="7.13172">
  <name>Ferme auberge du Chevremont - Orbey (68) [51] (15/04-15/10) +33389712351 (615m)</name>
  <sym>Triangle</sym>
</wpt>
<wpt lat="48.119" lon="6.73209">
  <name>Le Barba - Rehaupal (88) [51] (01/05-30/09) +33329663557 (505m)</name>
  <sym>Triangle</sym>
</wpt>
<wpt lat="48.12033" lon="6.83118">
  <name>La Steniole - Granges sur Vologne (88) (01/05-31/10) +33329514375 -CCA(727m)</name>
  <sym>Triangle</sym>
</wpt>
<wpt lat="48.12388" lon="6.81724">
  <name>Gademont Plage - Granges sur Vologne (88) (01/01-31/12) +33329514460 (658m)</name>
  <sym>Triangle</sym>
</wpt>
<wpt lat="48.13066" lon="7.16257">
  <name>Municipal Lefebure - Orbey (68) [51] (20/04-30/09) +33389713742 (544m)</name>
  <sym>Triangle</sym>
</wpt>
<wpt lat="48.13343" lon="6.84589">
  <name>Champ de Roches - Barbey Seroux (88) [51] (01/06-31/08) +33329514495 (612m)</name>
  <sym>Triangle</sym>
</wpt>
<wpt lat="48.13364" lon="6.7912">
  <name>Gina-Park - Granges sur Vologne (88) +33329514195 (516m)</name>
  <sym>Triangle</sym>
</wpt>
<wpt lat="48.13483" lon="6.91273">
  <name>Les Trexons - Gerbepal (88) [51] (01/06-15/09) +33329507492 (681m)</name>
  <sym>Triangle</sym>
</wpt>
<wpt lat="48.14188" lon="6.89404">
  <name>Ferme les Collieures - Corcieux (88) [51] (01/05-30/09) +33329506938 (694m)</name>
  <sym>Triangle</sym>
</wpt>
<wpt lat="48.14217" lon="6.78708">
  <name>Les Peupliers - Granges sur Vologne (88) [51] (01/05-30/09) +33329575104 (499m)</name>
  <sym>Triangle</sym>
</wpt>
<wpt lat="48.14887" lon="7.25403">
  <name>Municipal**** - Kaysersberg (01/04-30/09) +33389471447 (266m)</name>
  <sym>Triangle</sym>
</wpt>
<wpt lat="48.15184" lon="6.3644">
  <name>Aire Naturelle du Champ Miguet - Renauvoid (88) [51] (01/01-31/12) +33329822282 (374m)</name>
  <sym>Triangle</sym>
</wpt>
<wpt lat="48.15286" lon="6.78969">
  <name>Le Chateau - Granges sur Vologne (88) [51] (17/04-07/09) +33329575083 (543m)</name>
  <sym>Triangle</sym>
</wpt>
<wpt lat="48.15621" lon="6.35954">
  <name>Aire naturelle Ascpa - Renauvoid (88) [51] (01/02-30/11) +33329824467 (375m)</name>
  <sym>Triangle</sym>
</wpt>
<wpt lat="48.16102" lon="6.96328">
  <name>Casa Boslimpre - Ban sur Meurthe Clefcy (tentes seulement) (88) [51] (01/05-30/09) +33329508704 (753m)</name>
  <sym>Triangle</sym>
</wpt>
<wpt lat="48.16173" lon="6.35199">
  <name>Les Amis de la Nature - Chaumousey (88) (01/06-30/09) +33675781624 (377m)</name>
  <sym>Triangle</sym>
</wpt>
<wpt lat="48.16235" lon="7.31702">
  <name>Intercommunal**** - Riquewihr (01/04-05/01) +33389479008 (246m)</name>
  <sym>Triangle</sym>
</wpt>
<wpt lat="48.16631" lon="6.89366">
  <name>Au Mica - Corcieux (88) (01/06-30/08) +33329507007 (562m)</name>
  <sym>Triangle</sym>
</wpt>
<wpt lat="48.16698" lon="6.3605">
  <name></name>
  <sym>Triangle</sym>
</wpt>
<wpt lat="48.16821" lon="6.89008">
  <name>Le Clos de la Chaume - Corcieux (88) (01/05-20/09) +33329507676 -CCA(548m)</name>
  <sym>Triangle</sym>
</wpt>
<wpt lat="48.16886" lon="6.87999">
  <name>Des Bans - Corcieux (88) (01/01-31/12) +33329516467 (545m)</name>
  <sym>Triangle</sym>
</wpt>
<wpt lat="48.17004" lon="6.88107">
  <name>La Tour - Corcieux (88) [51] (01/01-31/12) +33329507519 (541m)</name>
  <sym>Triangle</sym>
</wpt>
<wpt lat="48.17035" lon="7.11386">
  <name>Rural Les Myrtilles - Le Bonhomme (tentes seulement) (68) [51] (12/04-26/10) +33389475750 (732m)</name>
  <sym>Triangle</sym>
</wpt>
<wpt lat="48.17243" lon="5.5548">
  <name>Les Hirondelles - Bourg Sainte Marie (52) [51] (01/01-31/12) +33310206164 -CCA(347m)</name>
  <sym>Triangle</sym>
</wpt>
<wpt lat="48.17606" lon="6.95416">
  <name>Les Acacias Nature - Anould (88) [51] (15/06-15/09) +33329571106 (567m)</name>
  <sym>Triangle</sym>
</wpt>
<wpt lat="48.17852" lon="6.74283">
  <name>Des Messires - Herpelmont (88) (18/04-28/09) +33329585629 -CCA(443m)</name>
  <sym>Triangle</sym>
</wpt>
<wpt lat="48.17972" lon="6.46843">
  <name>Parc du Chateau - Epinal (88) [51] (01/04-31/10) +33329344365 -CCA(373m)</name>
  <sym>Triangle</sym>
</wpt>
<wpt lat="48.1802" lon="5.88522">
  <name>Municipal Le Tir aux Pigeons*** - Contrexeville (68) (01/04-31/10) +33329081506 (364m)</name>
  <sym>Triangle</sym>
</wpt>
<wpt lat="48.18146" lon="7.18462">
  <name>Municipal Les Verts Bois - Freland (68) [51] (01/04-31/10) +33389719194 (524m)</name>
  <sym>Triangle</sym>
</wpt>
<wpt lat="48.18432" lon="6.95792">
  <name>Les Acacias - Anould (88) (05/12-28/09) +33329571106 (460m)</name>
  <sym>Triangle</sym>
</wpt>
<wpt lat="48.18489" lon="6.99043">
  <name>Clairegoutte - Fraize (88) [51] (01/04-30/10) +33329503527 (488m)</name>
  <sym>Triangle</sym>
</wpt>
<wpt lat="48.18987" lon="6.77508">
  <name>Les Pinasses - La Chapelle devant Bruyeres (88) (01/04-30/09) +33329585110 -CCpg304(453m)</name>
  <sym>Triangle</sym>
</wpt>
<wpt lat="48.19804" lon="7.30296">
  <name>Municipal Des Trois Chateaux - Ribeauville (68) (28/06-08/09) +33389732000 (301m)</name>
  <sym>Triangle</sym>
</wpt>