<?xml version="1.0" encoding="ISO-8859-1"?>
<gpx xmlns="http://www.topografix.com/GPX/1/1" xmlns:xsi="http://www.w3.org/2001/XMLSchema-instance" xsi:schemaLocation="http://www.topografix.com/GPX/1/1 http://www.topografix.com/GPX/1/1/gpx.xsd" version="1.1" creator="PoiEdit v5.2.0 build 212 ©2002-2008 by Dnote Software (http://www.poiedit.com)"><wpt lat="41.37824" lon="9.21024"><name>Des Iles - Bonifacio (20) &gt;+33495731189 (35m)</name></wpt><wpt lat="41.39272" lon="9.16559"><name>Araguina - Bonifacio (20) &gt;+33495730273 (24m)</name></wpt><wpt lat="41.3998" lon="9.20129"><name>Pian Del Fosse - Bonifacio (20) (15/04-15/10) &gt;+33495731634 -CCA(67m)</name></wpt><wpt lat="41.40625" lon="9.17071"><name>Morto - Bonifacio (20) &gt;+33495730466 (69m)</name></wpt><wpt lat="41.4102" lon="9.12695"><name>La Trinite - Bonifacio (20) &gt;+33495731091 (120m)</name></wpt><wpt lat="41.41778" lon="9.17976"><name>U'Farniente de Pertamina - Bonifacio (20) (01/04-31/10) &gt;+33495730547 -CCpg250(95m)</name></wpt><wpt lat="41.41943" lon="9.17913"><name>Campo di Liccia - Bonifacio (20) &gt;+33495730309 (89m)</name></wpt><wpt lat="41.47272" lon="9.04365"><name>Kevano Plage - Pianottoli Caldarello (20) &gt;+33495718322 (11m)</name></wpt><wpt lat="41.47316" lon="9.26296"><name>Rondinara - Bonifacio (20) &gt;+33495704315 (36m)</name></wpt><wpt lat="41.47606" lon="9.04704"><name>Le Damier - Pianottoli Caldarello (20) &gt;+33495718295 (17m)</name></wpt><wpt lat="41.50225" lon="8.93818"><name>Municipal - Sartene (20) &gt;+33495259864 (21m)</name></wpt><wpt lat="41.50253" lon="9.01456"><name>A la ferme de Poli Bernard - Monacia d'Aullene (20) [&lt;51] &gt;+33495718628 (23m)</name></wpt><wpt lat="41.53137" lon="9.16488"><name>U Moru - Sotta (20) &gt;+33495712340 (106m)</name></wpt><wpt lat="41.53384" lon="8.96312"><name>Pero Longo - Sartene (20) &gt;+33495771074 (38m)</name></wpt><wpt lat="41.5349" lon="8.86293"><name>L'Avena - Sartene (20) (06/06-19/09) &gt;+33495770218 -CCpg251(12m)</name></wpt><wpt lat="41.5477" lon="9.29913"><name>Asciaghju - Porto Vecchio (20) &gt;+33495703787 (26m)</name></wpt><wpt lat="41.57084" lon="9.27609"><name>U Stabiacciu - Porto Vecchio (20) &gt;+33495703717 (3m)</name></wpt><wpt lat="41.57327" lon="9.29027"><name>Les Jardins Du Golfe - Porto Vecchio (20) &gt;+33495704692 (2m)</name></wpt><wpt lat="41.58657" lon="9.20068"><name>Ferme d'Alzetta - Porto Vecchio (20) [&lt;51] &gt;+33495700232 (58m)</name></wpt><wpt lat="41.58798" lon="9.3349"><name>Bella Vista - Porto Vecchio (20) &gt;+33495705801 (39m)</name></wpt><wpt lat="41.58973" lon="9.33173"><name>U Pirellu - Porto Vecchio (20) &gt;+33495702344 (40m)</name></wpt><wpt lat="41.59377" lon="9.35729"><name>Naturist - La Chiappa - Porto Vecchio (20) &gt;+33495700031 (7m)</name></wpt><wpt lat="41.59505" lon="9.27437"><name>La Matonara - Porto Vecchio (20) &gt;+33495703705 (9m)</name></wpt><wpt lat="41.60192" lon="9.26611"><name>Arutoli - Porto Vecchio (20) &gt;+33495701273 (13m)</name></wpt><wpt lat="41.61779" lon="9.21232"><name>Naturist - U'Furu - Porto Vecchio (20) &gt;+33495701083 (102m)</name></wpt><wpt lat="41.61982" lon="8.95427"><name>U Farrandu - Sartene (20) [&lt;51] &gt;+33495734169 (177m)</name></wpt><wpt lat="41.62033" lon="9.29885"><name>Pezza Cardo - Porto Vecchio (20) &gt;+33495722759 (20m)</name></wpt><wpt lat="41.62165" lon="9.29938"><name>Les Chenes - Porto Vecchio (20) &gt;+33495700985 (18m)</name></wpt><wpt lat="41.62229" lon="9.29965"><name>Les Ilots D'Or - Porto Vecchio (20) &gt;+33495700130 (18m)</name></wpt><wpt lat="41.62338" lon="9.30046"><name>La Baie des Voiles - Porto Vecchio (20) &gt;+33495700123 (16m)</name></wpt><wpt lat="41.62598" lon="8.81389"><name>Peretto Les Roseaux - Belvedere Campomoro (20) &gt;+33495742052 (21m)</name></wpt><wpt lat="41.62808" lon="8.81641"><name>La Vallee - Propriano (20) &gt;+33495721249 (15m)</name></wpt><wpt lat="41.62877" lon="9.31423"><name>Golfo Di Sogno - Porto Vecchio (20) &gt;+33495700898 (0m)</name></wpt><wpt lat="41.63103" lon="9.3242"><name>L'Oso - Porto Vecchio (20) &gt;+33495716099 (3m)</name></wpt><wpt lat="41.63226" lon="9.29329"><name>La Vetta - Porto Vecchio (20) &gt;+33495700986 (60m)</name></wpt><wpt lat="41.63407" lon="9.29466"><name>Pitrera - Porto Vecchio (20) &gt;+33495702010 (61m)</name></wpt><wpt lat="41.64021" lon="8.97475"><name>Olva Les Eucalyptus - Sartene (20) &gt;+33495771158 (75m)</name></wpt><wpt lat="41.64126" lon="9.27919"><name>Les Amis De La Nature - San Gavino Di Carbini (20) [&lt;51] &gt;+33495702157 (57m)</name></wpt><wpt lat="41.6416" lon="8.86679"><name>Lecci e Murta - Propriano (20) &gt;+33495760267 (19m)</name></wpt><wpt lat="41.64466" lon="9.32896"><name>Mora Dell'Onda - Lecci (20) [&lt;51] &gt;+33495251667 (19m)</name></wpt><wpt lat="41.64635" lon="9.29422"><name>Cupulatta - Porto Vecchio (20) &gt;+33612815089 (39m)</name></wpt><wpt lat="41.65864" lon="9.36988"><name>Naturist - Villata - Sainte Lucie De Porto Vecchio (20) &gt;+33495716290 (22m)</name></wpt><wpt lat="41.66663" lon="9.38026"><name>California - Sainte Lucie de Porto Vecchio (20) &gt;+33495714924 (5m)</name></wpt><wpt lat="41.6721" lon="9.30163"><name>Mulinacciu - Lecci (20) (20/05-30/09) &gt;+33495714748 -CCA(80m)</name></wpt><wpt lat="41.68219" lon="8.92004"><name>Le Tikiti - Propriano (20) &gt;+33495760832 (18m)</name></wpt><wpt lat="41.68373" lon="8.92291"><name>La Corsica - Propriano (20) &gt;+33495760832 (7m)</name></wpt><wpt lat="41.68495" lon="8.92519"><name>Colomba - Propriano (20) &gt;+33495762752 (7m)</name></wpt><wpt lat="41.68537" lon="9.37002"><name>U Pinarellu - Sainte Lucie de Porto Vecchio (20) &gt;+33495714398 (19m)</name></wpt><wpt lat="41.69239" lon="8.89035"><name>Aire naturelle de Leonetti Marie - Olmeto (20) [&lt;51] &gt;+33495760024 (48m)</name></wpt><wpt lat="41.69361" lon="9.33547"><name>U Puntonu - Sainte Lucie de Porto Vecchio (20) &gt;+33495714275 (60m)</name></wpt><wpt lat="41.69483" lon="8.88343"><name>Chez Antoine** - Olmeto (20) [&lt;51] &gt;+33495760606 (11m)</name></wpt><wpt lat="41.69553" lon="8.88878"><name>l'Esplanade - Olmeto (20) &gt;+33495760503 (65m)</name></wpt><wpt lat="41.69683" lon="8.87775"><name>Aglio - Olmeto (20) &gt;+33495760715 (9m)</name></wpt><wpt lat="41.69708" lon="9.34288"><name>Santa Lucia - Sainte Lucie De Porto Vecchio (20) &gt;+33495714528 (52m)</name></wpt><wpt lat="41.69783" lon="8.84421"><name>Abartello - Olmeto (20) &gt;+33495740512 (6m)</name></wpt><wpt lat="41.69809" lon="8.89641"><name>Vigna Maggiore - Olmeto (20) &gt;+33495746202 -CCA(139m)</name></wpt><wpt lat="41.70095" lon="8.85782"><name>U Libecciu - Olmeto (20) &gt;+33495740128 (33m)</name></wpt><wpt lat="41.70293" lon="8.83577"><name>Le Ras L'Bol - Olmeto (20) &gt;+33495740425 (4m)</name></wpt><wpt lat="41.70334" lon="9.3509"><name>Acqua e Sole - Sainte Lucie de Porto Vecchio (20) &gt;+33820201207 (40m)</name></wpt><wpt lat="41.70972" lon="8.79385"><name>Funtanella - Serra di Ferro (20) (10m)</name></wpt><wpt lat="41.71126" lon="8.80485"><name>Alfonsi-U Caseddu - Serra di Ferro (20) &gt;+33495740180 (6m)</name></wpt><wpt lat="41.71156" lon="8.79931"><name>Valinco - Serra di Ferro (20) [&lt;51] &gt;+33495740278 (8m)</name></wpt><wpt lat="41.71565" lon="9.40194"><name>Fautea - Sainte Lucie de Porto Vecchio (20) [&lt;51] (01/05-30/09) &gt;+33495714151 (8m)</name></wpt><wpt lat="41.71598" lon="8.8177"><name>Cyrnos - Serra di Ferro (20) &gt;+33495740055 (1m)</name></wpt><wpt lat="41.7215" lon="9.15084"><name>d'Ora - San Gavino Di Carbini (20) [&lt;51] &gt;+33495784817 (673m)</name></wpt><wpt lat="41.72558" lon="8.7954"><name>U Turracconu - Serra di Ferro (20) &gt;+33495740057 (151m)</name></wpt><wpt lat="41.75008" lon="9.19481"><name>Municipal Zonza - Zonza (20) [&lt;51] &gt;+33495786274 (784m)</name></wpt><wpt lat="41.75705" lon="9.09555"><name>Municipal Serra Di Scopamene - Serra Di Scopamene (20) &gt;+33495787220 (945m)</name></wpt><wpt lat="41.76015" lon="9.40442"><name>Mozziconaccio - Sainte Lucie de Porto Vecchio (20) &gt;+33495732082 (14m)</name></wpt><wpt lat="41.76864" lon="9.17783"><name>Aire naturelle La Riviere - Zonza (20) [&lt;51] &gt;+33495700367 (676m)</name></wpt><wpt lat="41.77449" lon="8.90375"><name>Comte Abbatucci - Casalabriva (20) [&lt;51] (01/02-10/12) &gt;+33495740455 (34m)</name></wpt><wpt lat="41.80024" lon="9.39411"><name>Le Grand Bleu** - Canella (20) [&lt;51] (20m)</name></wpt><wpt lat="41.8088" lon="8.76469"><name>La Vallee - Coti Chiavari (20) &gt;+33495254466 (4m)</name></wpt><wpt lat="41.82846" lon="8.78401"><name>Le Sud - Pietrosella (20) &gt;+33495254051 (16m)</name></wpt><wpt lat="41.844" lon="9.34244"><name>U Rosumarinu - Solenzara (20) &gt;+33495574766 (76m)</name></wpt><wpt lat="41.85195" lon="8.7973"><name>l'Europe - Pietrosella (20) &gt;+33495254294 (9m)</name></wpt><wpt lat="41.86553" lon="9.39725"><name>Cote Des Nacres - Solenzara (20) &gt;+33495574009 (9m)</name></wpt><wpt lat="41.87665" lon="9.39613"><name>Les Eucalyptus - Solaro &gt;+33495396552 (5m)</name></wpt><wpt lat="41.88412" lon="8.80791"><name>Mare e Macchia - Porticcio (20) &gt;+33495251058 (58m)</name></wpt><wpt lat="41.89173" lon="9.40005"><name>Sole Oro - Solaro (20) &gt;+33495578428 (0m)</name></wpt><wpt lat="41.90717" lon="8.82266"><name>Benista - Porticcio (20) (01/04-15/10) &gt;+33495251930 -CCA(7m)</name></wpt><wpt lat="41.90948" lon="8.6854"><name>Chateau De Barbicaggia - Ajaccio (20) &gt;+33495520117 (16m)</name></wpt><wpt lat="41.91107" lon="8.82625"><name>U Prunelli - Porticcio (20) &gt;+33495251923 (10m)</name></wpt><wpt lat="41.93725" lon="8.72851"><name>Les Mimosas - Ajaccio (20) &gt;+33495209985 (38m)</name></wpt><wpt lat="41.98638" lon="9.39906"><name>Via Romana - Casamozza di Fium'Orbu (20) &gt;+33495570702 (10m)</name></wpt><wpt lat="41.99868" lon="9.44222"><name>Arinella Bianca - Ghisonaccia (12/04-30/09) &gt;+33495560478 -CCA(0m)</name></wpt><wpt lat="41.99905" lon="9.43566"><name>U Casone - Ghisonaccia (20) &gt;+33495562071 (0m)</name></wpt><wpt lat="41.99976" lon="9.44722"><name>Marina d'Erba Rossa - Ghisonaccia (20) (05/04-20/10) &gt;+33495562514 -CCA(0m)</name></wpt><wpt lat="42.00404" lon="8.70873"><name>Du Soleil - Appietto (20) &gt;+33495228727 (53m)</name></wpt><wpt lat="42.02749" lon="8.92354"><name>l'Adumbratu - Carbuccia (20) &gt;+33495528839 (319m)</name></wpt><wpt lat="42.02816" lon="9.19474"><name>San Petru (seulement tentes) - Col de Verde (20) [&lt;51] &gt;+33495244682 (1292m)</name></wpt><wpt lat="42.02949" lon="8.91322"><name>Les Eaux Vives - Ucciani (20) &gt;+33495528109 (216m)</name></wpt><wpt lat="42.04133" lon="8.75437"><name>Le Calcatoggio - Calcatoggio (20) &gt;+33495522831 (55m)</name></wpt><wpt lat="42.047" lon="8.75446"><name>La Liscia - Calcatoggio (20) &gt;+33495522065 (11m)</name></wpt><wpt lat="42.04705" lon="8.74942"><name>A Marina - Calcatoggio (20) [&lt;51] &gt;+33495522184 (0m)</name></wpt><wpt lat="42.07012" lon="8.73084"><name>U Sommalu - Tiuccia (20) &gt;+33495522421 (24m)</name></wpt><wpt lat="42.07582" lon="8.74323"><name>Liamone - Casaglione (20) &gt;+33495522963 (72m)</name></wpt><wpt lat="42.07937" lon="8.7475"><name>Les Couchants - Casaglione (20) &gt;+33495522660 (95m)</name></wpt><wpt lat="42.11151" lon="9.54953"><name>Marina d'Aleria - Aleria (20) (01/05-08/10) &gt;+33495570142 -CCA-BD_FR-S.096(0m)</name></wpt><wpt lat="42.11389" lon="8.81381"><name>Truggia - Lopigna (20) [&lt;51] &gt;+33495529021 (67m)</name></wpt><wpt lat="42.13049" lon="8.7054"><name>Sagone - Sagone (13/04-15/09) &gt;+33495280415 -CCpg252-CCA(13m)</name></wpt><wpt lat="42.15311" lon="9.15148"><name>Aire naturelle Le Soleil - Vivario (20) [&lt;51] &gt;+33495472116 (797m)</name></wpt><wpt lat="42.16234" lon="8.59794"><name>Torraccia - Cargese (20) &gt;+33495264239 (101m)</name></wpt><wpt lat="42.16505" lon="8.78743"><name>La Sposata - Vico (20) &gt;+33495266155 (504m)</name></wpt><wpt lat="42.16552" lon="9.54401"><name>Naturist - Riva Bella - Aleria (20) (20/01-20/12) &gt;+33495388110 -CCA-BD_FR-S.097(0m)</name></wpt><wpt lat="42.17007" lon="9.5274"><name>La Ferme Capicorsine- Aleria (20) [&lt;51] &gt;+33689243031 (25m)</name></wpt><wpt lat="42.20229" lon="9.55472"><name>Le Bord de Mer - Bravone (20) &gt;+33495388408 (1m)</name></wpt><wpt lat="42.20855" lon="9.34547"><name>Aire naturelle Ernella - Giuncaggio (20) [&lt;51] &gt;+33495488206 (146m)</name></wpt><wpt lat="42.21087" lon="8.5861"><name>De La Plage d'Arone - Piana (20) &gt;+33495206454 (26m)</name></wpt><wpt lat="42.21151" lon="9.31834"><name>U Sortipiani - Piedicorte di Gaggio (20) [&lt;51] &gt;+33495488167 (156m)</name></wpt><wpt lat="42.21484" lon="9.5553"><name>Naturist - Bagheera - Bravonne (20) (15/03-31/10) &gt;+33495388030 -CCpg254-CCA(5m)</name></wpt><wpt lat="42.22168" lon="9.55038"><name>Naturist - Les Eucalyptus - Linguizzetta (20) &gt;+33495388717 (9m)</name></wpt><wpt lat="42.22376" lon="9.19382"><name>Aire naturelle Perindundellu - Venaco (20) [&lt;51] &gt;+33495470989 (354m)</name></wpt><wpt lat="42.22566" lon="9.54837"><name>Naturist - Corsica Natura - San Nicolao (20b) &gt;+33495389130 (9m)</name></wpt><wpt lat="42.25062" lon="8.81666"><name>l'Acciola - Evisa (20) [&lt;51] &gt;+33495262301 (925m)</name></wpt><wpt lat="42.25364" lon="8.72179"><name>Funtana Alora - Porto (20) [&lt;51] &gt;+33495261548 (108m)</name></wpt><wpt lat="42.26201" lon="8.71021"><name>Les Oliviers - Porto (20) &gt;+33495261449 (30m)</name></wpt><wpt lat="42.26282" lon="8.70992"><name>Sole E Vista - Ota (20) &gt;+33495261571 (38m)</name></wpt><wpt lat="42.26358" lon="8.70072"><name>Municipal Ota - Ota (20) &gt;+33495261776 (18m)</name></wpt><wpt lat="42.27573" lon="9.1077"><name>Tuani - Corte (20) [&lt;51] &gt;+33495461165 (663m)</name></wpt><wpt lat="42.28995" lon="9.19032"><name>Santa Barbara - Corte (20) [&lt;51] &gt;+33495462022 (332m)</name></wpt><wpt lat="42.29974" lon="9.14987"><name>l'Alivetu - Corte (20) [&lt;51] &gt;+33495461109 (414m)</name></wpt><wpt lat="42.3002" lon="9.14788"><name>Aire naturelle de U Sognu - Corte (20) [&lt;51] &gt;+33495460907 (419m)</name></wpt><wpt lat="42.30116" lon="9.1511"><name>Le Restonica - Corte (20) &gt;+33495461159 (407m)</name></wpt><wpt lat="42.30446" lon="9.147"><name>Chez Barto - Corte (20) [&lt;51] &gt;+33495460230 (420m)</name></wpt><wpt lat="42.30639" lon="8.6461"><name>E Gradelle - Osani (20) (01/05-15/10) &gt;+33495273201 (17m)</name></wpt><wpt lat="42.31518" lon="9.54222"><name>Le Campoloro - Cervione (20) &gt;+33495380020 (16m)</name></wpt><wpt lat="42.32132" lon="9.54472"><name>Calamar - Cervione (20) &gt;+33495380354 (7m)</name></wpt><wpt lat="42.32877" lon="9.5392"><name>Olmello Plage - Valle Di Campoloro (20) &gt;+33495380099 (8m)</name></wpt><wpt lat="42.33258" lon="9.00925"><name>Acquaviva - Calacuccia &gt;+33495480008 (862m)</name></wpt><wpt lat="42.34856" lon="9.00985"><name>Aire naturelle L'Arimone - Lozzi (20) [&lt;51] &gt;+33495480551 (1071m)</name></wpt><wpt lat="42.34861" lon="9.01018"><name>U Monte Cintu- Lozzi (20) [&lt;51] &gt;+33495480445 (1070m)</name></wpt><wpt lat="42.35485" lon="9.5318"><name>Kalypso - Santa Maria Poggio (20) &gt;+33495385674 (7m)</name></wpt><wpt lat="42.36468" lon="9.52983"><name>Merendella - San Nicolao (20) &gt;+33495385347 (4m)</name></wpt><wpt lat="42.37609" lon="2.53294"><name>Naturist - Village Club - Serralongue (66) &gt;+33468396292 (1008m)</name></wpt><wpt lat="42.38854" lon="2.60633"><name>Municipal Verte Rive - Saint Laurent de Cerdans (66) [&lt;51] &gt;+33468395464 (638m)</name></wpt><wpt lat="42.39114" lon="9.17613"><name>Aire naturelle Campita - Francardo (20) [&lt;51] (15/03-15/10) &gt;+33495474415 (295m)</name></wpt><wpt lat="42.39152" lon="9.53154"><name>U Punticchiu - Santa Lucia Di Moriani (20) &gt;+33495385779 (5m)</name></wpt><wpt lat="42.40297" lon="2.49201"><name>Saint Martin - Prats de Mollo la Preste (66) &gt;+33468397740 (699m)</name></wpt><wpt lat="42.40649" lon="2.39808"><name>A la ferme Plana Nera - Prats de Mollo la Preste (66) [&lt;51] &gt;+33468397361 (1135m)</name></wpt><wpt lat="42.40753" lon="2.46987"><name>Can Nadal - Prats de Mollo la Preste (66) &gt;+33468397089 (775m)</name></wpt><wpt lat="42.40952" lon="2.56563"><name>A la Ferme La Pomarede - Serralongue (66) [&lt;51] &gt;+33468396971 (503m)</name></wpt><wpt lat="42.41041" lon="9.53293"><name>Miami Plage - Poggio Mezzana (20) &gt;+33495369585 -BD_FR-S.104(6m)</name></wpt><wpt lat="42.41109" lon="8.64483"><name>Ideal - Galeria (20) &gt;+33495620146 (9m)</name></wpt><wpt lat="42.41145" lon="9.53524"><name>Aire naturelle La Caravelle - Poggio Mezzana (20) [&lt;51] &gt;+33495368382 (3m)</name></wpt><wpt lat="42.41155" lon="1.96675"><name>Las Asperas - Palau de Cerdagne (66) &gt;+33468046208 (1180m)</name></wpt><wpt lat="42.41279" lon="8.69052"><name>Les Deux Torrents - Galeria (20) &gt;+33495620067 (13m)</name></wpt><wpt lat="42.41282" lon="2.6173"><name>Naturist - Le Clols - Saint Laurent de Cerdans (66) &gt;+33468395168 (721m)</name></wpt><wpt lat="42.41488" lon="8.94592"><name>Monte Cinto - Asco (20) &gt;+33495478608 (1051m)</name></wpt><wpt lat="42.42186" lon="9.52274"><name>Valle Longhe - Talasani (20) [&lt;51] &gt;+33495368335 (30m)</name></wpt><wpt lat="42.43099" lon="9.20618"><name>De Griggione - Ponte Leccia (20) &gt;+33495476361 (229m)</name></wpt><wpt lat="42.43531" lon="1.94478"><name>Le Segre - Bourg Madame (66) [&lt;51] &gt;+33468046587 (1140m)</name></wpt><wpt lat="42.43577" lon="9.44965"><name>Les Cascades - Pruno (20) [&lt;51] &gt;+33495369191 (111m)</name></wpt><wpt lat="42.43773" lon="2.0342"><name>Le Puigmal - Err (66) &gt;+33468047183 (1360m)</name></wpt><wpt lat="42.43879" lon="1.94385"><name>Mas Piques - Bourg Madame (66) &gt;+33468046211 (1146m)</name></wpt><wpt lat="42.43958" lon="2.62442"><name>Naturist - Le Ventous-El Ventos - Arles sur Tech (66) &gt;+33621466522 (650m)</name></wpt><wpt lat="42.44008" lon="9.52184"><name>Aire naturelle Ficajola - Taglio Isolaccio (20) [&lt;51] &gt;+33495369616 (7m)</name></wpt><wpt lat="42.44019" lon="2.03195"><name>Las Closas - Err (66) &gt;+33468047142 -CCA(1353m)</name></wpt><wpt lat="42.44218" lon="2.02675"><name>La Riberette - Err (66) &gt;+33468047560 (1327m)</name></wpt><wpt lat="42.45586" lon="1.94236"><name>La Gare - Ur (66) &gt;+33468048095 (1182m)</name></wpt><wpt lat="42.45644" lon="3.16328"><name>Municipal Cap Peyrefite - Cerbere (66) &gt;+33468884117 (31m)</name></wpt><wpt lat="42.45796" lon="2.62577"><name>Le Riuferrer - Arles sur Tech (66) &gt;+33468391106 (311m)</name></wpt><wpt lat="42.46019" lon="1.91268"><name>Le Robinson - Enveitg (66) &gt;+33468048038 (1265m)</name></wpt><wpt lat="42.46047" lon="2.03521"><name>Le Cerdan - Saillagouse (66) &gt;+33468047046 (1303m)</name></wpt><wpt lat="42.46422" lon="2.03388"><name>Ilisa - Saillagouse (66) &gt;+33468047508 (1358m)</name></wpt><wpt lat="42.46516" lon="8.68238"><name>La Morsetta - Galeria (20) &gt;+33495652524 (18m)</name></wpt><wpt lat="42.46519" lon="9.53389"><name>Marina Di Casinca - Penta di Casinca (20) &gt;+33495365387 (0m)</name></wpt><wpt lat="42.46538" lon="2.00665"><name>Rural de Palau Marie-Therese - Estavar (66) [&lt;51] &gt;+33468047275 (1239m)</name></wpt><wpt lat="42.46664" lon="2.65156"><name>Vallespir - Arles sur Tech (66) &gt;+33971288255 (253m)</name></wpt><wpt lat="42.46892" lon="1.99884"><name>l'Enclave - Estavar (66) &gt;+33468047227 -CCA(1220m)</name></wpt><wpt lat="42.469" lon="2.57803"><name>Le Cortsavi - Corsavy (66) &gt;+33468878924 (810m)</name></wpt><wpt lat="42.47011" lon="9.12119"><name>Tizzarella - Moltifao (20) &gt;+33495478392 (302m)</name></wpt><wpt lat="42.47013" lon="1.8808"><name>Municipal l'Oratoire - Latour de Carol (66) &gt;+33468048370 (1264m)</name></wpt><wpt lat="42.47261" lon="9.12761"><name>Aire naturelle Cabanella - Moltifao (20) [&lt;51] &gt;+33495650336 (294m)</name></wpt><wpt lat="42.47548" lon="9.13467"><name>Aire naturelle E Canicce - Moltifao (20) [&lt;51] &gt;+33495351675 (280m)</name></wpt><wpt lat="42.47587" lon="9.53138"><name>Anghione - Castellare di Casinca (20) &gt;+33495365022 (4m)</name></wpt><wpt lat="42.47713" lon="3.11932"><name>Municipal La Pinede - Banyuls sur Mer (66) [&lt;51] &gt;+33468883213 (15m)</name></wpt><wpt lat="42.47862" lon="2.80388"><name>Naturist - La Clapere - Maureillas Las Illas (66) [&lt;51] &gt;+33468833604 (154m)</name></wpt><wpt lat="42.47885" lon="1.95693"><name>Municipal Sol Y Neu - Angoustrine Villeneuve des Escaldes (66) &gt;+33468046683 (1306m)</name></wpt><wpt lat="42.47912" lon="2.67364"><name>Municipal Amelie les Bains Palalda** - Amelie les Bains Palalda (01/02-30/11) &gt;+33468392237 (207m)</name></wpt><wpt lat="42.48165" lon="2.69479"><name>Aloha - Amelie les Bains Palalda (66) (15/03-15/11) &gt;+33468390861 -CCA(225m)</name></wpt><wpt lat="42.48231" lon="9.27872"><name>U Fiumara - Castello di Rostino (20) [&lt;51] &gt;+33495386006 (150m)</name></wpt><wpt lat="42.48388" lon="9.52762"><name>Europa Beach - Sorbo Cocagnano (2B) &gt;+33495364428 (4m)</name></wpt><wpt lat="42.48421" lon="2.75871"><name>Municipal Le Bosquet de Nogarede** - Ceret [&lt;51] (01/04-31/10) &gt;+33468872672 (171m)</name></wpt><wpt lat="42.48614" lon="2.80728"><name>Municipal Le Tourou* - Maureillas Las Illas [&lt;51] (01/01-31/12) &gt;+33468832319 (137m)</name></wpt><wpt lat="42.4872" lon="9.52448"><name>Marina Di Sorbo - Sorbo Ocagnano (20) &gt;+33495389304 (2m)</name></wpt><wpt lat="42.4889" lon="2.7023"><name>Les Pommiers* - Reynes [&lt;51] (01/04-30/09) &gt;+33468390472 (180m)</name></wpt><wpt lat="42.48981" lon="2.76305"><name>Les Cerisiers* - Ceret (01/02-31/12) &gt;+33468870008 (151m)</name></wpt><wpt lat="42.49138" lon="2.79774"><name>Les Pins Le Congo** - Maureillas Las Illas (01/01-31/12) &gt;+33468832321 (134m)</name></wpt><wpt lat="42.49192" lon="2.78153"><name>Le Saint Martin - Ceret (66) &gt;+33621504796 (137m)</name></wpt><wpt lat="42.49205" lon="2.78159"><name>Le Saint Georges*** - Ceret (01/01-31/12) &gt;+33468870373 (137m)</name></wpt><wpt lat="42.49235" lon="2.79515"><name>Les Bruyeres*** - Maureillas Las Illas (66) (15/03-15/11) &gt;+33468832664 -CCA(137m)</name></wpt><wpt lat="42.49538" lon="1.98509"><name>La Griole - Targassonne (66) &gt;+33468300384 (1558m)</name></wpt><wpt lat="42.50252" lon="8.79166"><name>Paradella - Calenzana (20) &gt;+33495650097 (106m)</name></wpt><wpt lat="42.5033" lon="2.66863"><name>Mas d'en Bacou - Reynes (66) [&lt;51] &gt;+33468870047 (250m)</name></wpt><wpt lat="42.50387" lon="2.01631"><name>Las Clotes - Egat (66) &gt;+33468302690 (1687m)</name></wpt><wpt lat="42.50636" lon="2.04671"><name>Huttopia Font-Romeu - Font-Romeu Odeillo Via (66) &gt;+33468300932 (1773m)</name></wpt><wpt lat="42.50658" lon="2.82355"><name>Val Roma Park** - Maureillas Las Illas (05/05-30/09) &gt;+33468398813 (89m)</name></wpt><wpt lat="42.50663" lon="2.79488"><name>La Vallee*** - Saint Jean Pla de Corts (66) (01/04-31/10) &gt;+33468832320 -CCA(88m)</name></wpt><wpt lat="42.50794" lon="2.76788"><name>Mas d'En Mas* - Ceret (01/01-31/12) &gt;+33468834601 (129m)</name></wpt><wpt lat="42.50998" lon="2.82727"><name>l'Olivette** - Le Boulou (15/03-31/10) &gt;+33468834808 (90m)</name></wpt><wpt lat="42.51037" lon="2.78309"><name>Les Casteillets*** - Saint Jean Pla de Corts (01/01-31/12) &gt;+33468832683 (103m)</name></wpt><wpt lat="42.51089" lon="2.18194"><name>Municipal Francois Rouquet - Fontpedrouse (66) &gt;+33468970515 (1007m)</name></wpt><wpt lat="42.51466" lon="2.63938"><name>Naturist - Mas de la Balma - Amelie les Bains Palalda (66) &gt;+33468390888 (410m)</name></wpt><wpt lat="42.51957" lon="2.09712"><name>Municipal La Llagonne - La Llagonne (66) &gt;+33468042604 (1657m)</name></wpt><wpt lat="42.52128" lon="2.84543"><name>Les Oliviers** - Le Boulou (16/01-14/12) &gt;+33468831286 (81m)</name></wpt><wpt lat="42.52134" lon="9.05097"><name>A la ferme l'Aghja - Vallica (20) [&lt;51] &gt;+33495613613 (818m)</name></wpt><wpt lat="42.52372" lon="2.94641"><name>Club Mas Manyeres - Laroque des Alberes (66) &gt;+33468893311 (95m)</name></wpt><wpt lat="42.52383" lon="2.94412"><name>Les Alberes - Laroque des Alberes (66) &gt;+33468892364 (92m)</name></wpt><wpt lat="42.5254" lon="2.93531"><name>Municipal Le Vivier - Laroque des Alberes (66) &gt;+33468954997 (87m)</name></wpt><wpt lat="42.52568" lon="2.91405"><name>Las Planes** - Laroque des Alberes (15/06-31/08) &gt;+33468892136 (94m)</name></wpt><wpt lat="42.52848" lon="2.89931"><name>Le Soleil d'Or** - Villelongue Dels Monts [&lt;51] (15/04-30/09) &gt;+33468555662 (93m)</name></wpt><wpt lat="42.52966" lon="2.98744"><name>Le Rancho - Argeles sur Mer (66) &gt;+33468810488 (72m)</name></wpt><wpt lat="42.53141" lon="3.07166"><name>Les Amandiers - Collioure (66) (29/03-12/10) &gt;+33468811469 -CCpg184-CCA(15m)</name></wpt><wpt lat="42.53179" lon="3.02706"><name>Domaine les Mimosas - Argeles sur Mer (66) &gt;+33468810693 (56m)</name></wpt><wpt lat="42.53214" lon="2.86978"><name>Sant-Cristau** - Montesquieu des Alberes (15/05-15/10) &gt;+33468897101 (76m)</name></wpt><wpt lat="42.5325" lon="3.07657"><name>La Girelle - Collioure (66) &gt;+33468812556 (28m)</name></wpt><wpt lat="42.53311" lon="3.052"><name>La Coste Rouge - Argeles sur Mer (66) &gt;+33468810870 (24m)</name></wpt><wpt lat="42.53313" lon="2.31121"><name>Naturist - Le P'tit Bonheur - Escaro (66) [&lt;51] &gt;+33468970853 (906m)</name></wpt><wpt lat="42.53331" lon="2.39767"><name>Saint Martin - Casteil (66) [&lt;51] (29/03-31/10) &gt;+33468055209 -CCA(838m)</name></wpt><wpt lat="42.53353" lon="3.06786"><name>Les Criques de Porteils - Argeles sur Mer (66) (29/03-25/10) &gt;+33468811273 -CCA(10m)</name></wpt><wpt lat="42.5345" lon="2.95594"><name>Les Micocouliers - Sorede (66) &gt;+33468892027 -CCA(71m)</name></wpt><wpt lat="42.5348" lon="2.96003"><name>La Coscolleda - Sorede (66) (01/04-01/10) &gt;+33468891665 -CCA(64m)</name></wpt><wpt lat="42.537" lon="2.35972"><name>Fontanelle - Sahorre (66) &gt;+33468055506 (672m)</name></wpt><wpt lat="42.5388" lon="3.052"><name>Bois de Valmarie - Argeles sur Mer (66) &gt;+33468810461 (3m)</name></wpt><wpt lat="42.54002" lon="2.99517"><name>Le Romarin - Argeles sur Mer (66) (01/04-30/09) &gt;+33468810263 -CCA(48m)</name></wpt><wpt lat="42.5409" lon="2.9244"><name>La Pinede** - Saint Genis des Fontaines (01/06-31/08) &gt;+33468897529 (57m)</name></wpt><wpt lat="42.54157" lon="2.83431"><name>Mas Llinas*** - Le Boulou (01/03-30/12) &gt;+33468821564 -BD_FR-Q.064a(102m)</name></wpt><wpt lat="42.54416" lon="2.38477"><name>Les Cerisiers - Vernet les Bains (66) &gt;+33468056038 (681m)</name></wpt><wpt lat="42.54445" lon="9.52268"><name>l'Esperanza - Lucciana (20) &gt;+33495361509 (1m)</name></wpt><wpt lat="42.54657" lon="3.04675"><name>La Sardane - Argeles sur Mer (66) &gt;+33468811082 (3m)</name></wpt><wpt lat="42.54688" lon="1.83468"><name>Municipal La Riviere - Porte Puymorens (66) &gt;+33468048220 (1616m)</name></wpt><wpt lat="42.54693" lon="3.04675"><name>Front De Mer - Argeles sur Mer (66) &gt;+33468810870 (3m)</name></wpt><wpt lat="42.54779" lon="2.58691"><name>Municipal La Bastide - La Bastide (66) [&lt;51] &gt;+33468394281 (795m)</name></wpt><wpt lat="42.54823" lon="3.03609"><name>Le Stade - Argeles sur Mer (66) &gt;+33468810440 (6m)</name></wpt><wpt lat="42.54848" lon="2.75342"><name>Municipal Al Comu - Llauro (66) [&lt;51] (01/04-24/10) &gt;+33468394208 -CCA(288m)</name></wpt><wpt lat="42.54972" lon="3.04159"><name>Le Carrefour - Argeles sur Mer (66) &gt;+33468959034 (2m)</name></wpt><wpt lat="42.55004" lon="3.04181"><name>Europe - Argeles sur Mer (66) &gt;+33468810810 (2m)</name></wpt><wpt lat="42.55015" lon="3.04561"><name>Catalan - Argeles sur Mer (66) &gt;+33468811226 (4m)</name></wpt><wpt lat="42.55027" lon="3.04423"><name>La Plage - Argeles sur Mer (66) &gt;+33468811217 (4m)</name></wpt><wpt lat="42.5503" lon="3.043"><name>Les Acacias - Argeles sur Mer (66) &gt;+33468812788 (2m)</name></wpt><wpt lat="42.5506" lon="3.03105"><name>La Massane - Argeles sur Mer (66) &gt;+33468810685 -BD_FR-Q.076a(7m)</name></wpt><wpt lat="42.55093" lon="3.04622"><name>Bouix - Argeles sur Mer (66) &gt;+33468811175 (4m)</name></wpt><wpt lat="42.5515" lon="3.04427"><name>Les Peupliers - Argeles sur Mer (66) &gt;+33468811791 (3m)</name></wpt><wpt lat="42.55158" lon="3.04455"><name>Comanges - Argeles sur Mer (66) (14/04-01/10) &gt;+33468811562 -CCA(3m)</name></wpt><wpt lat="42.55169" lon="3.04285"><name>Les Ombrages - Argeles sur Mer (66) &gt;+33468812983 (3m)</name></wpt><wpt lat="42.55226" lon="8.76429"><name>Paduella - Calvi (20) &gt;+33495650616 (7m)</name></wpt><wpt lat="42.55229" lon="8.75636"><name>Bella Vista - Calvi (20) &gt;+33495651176 (10m)</name></wpt><wpt lat="42.55302" lon="3.04343"><name>La Chapelle - Argeles sur Mer (66) (19/04-21/09) &gt;+33468812814 -CCA(3m)</name></wpt><wpt lat="42.55364" lon="8.76857"><name>La Pinede - Calvi (20) (16/05-10/11) &gt;+33495651780 -CCpg253-CCA(5m)</name></wpt><wpt lat="42.55424" lon="8.78881"><name>Dolce-Vita - Calvi (20) (01/04-10/11) &gt;+33495650599 (2m)</name></wpt><wpt lat="42.55506" lon="2.37756"><name>L'Eau Vive - Vernet les Bains (66) (12/04-28/09) &gt;+33468055414 (580m)</name></wpt><wpt lat="42.55516" lon="8.75486"><name>Le Libeccio - Calvi (20) (05/04 &gt;+33495651012 (6m)</name></wpt><wpt lat="42.55541" lon="8.75913"><name>International - Calvi (20) (19/04 &gt;+33495650175 (3m)</name></wpt><wpt lat="42.55583" lon="3.04227"><name>Les Pins - Argeles sur Mer (66) (12/04-28/09) &gt;+33468811046 -CCA(3m)</name></wpt><wpt lat="42.55636" lon="2.38487"><name>Del Bosc - Vernet les Bains (66) (07/05-28/09) &gt;+33468055454 (617m)</name></wpt><wpt lat="42.55657" lon="8.75526"><name>Campo Di Fiori - Calvi (20) (01/04 &gt;+33495483460 (5m)</name></wpt><wpt lat="42.55663" lon="8.75529"><name>La Cle Des Champs - Calvi (20) [&lt;51] (07/05-04/11) &gt;+33495650086 (5m)</name></wpt><wpt lat="42.55692" lon="3.04074"><name>Beausejour - Argeles sur Mer (66) (01/01 &gt;+33468811063 (3m)</name></wpt><wpt lat="42.55709" lon="3.02917"><name>Le Pujol - Argeles sur Mer (66) (15/04 &gt;+33468810025 (4m)</name></wpt><wpt lat="42.55723" lon="8.75613"><name>Les Castors - Calvi (20) (26/04 &gt;+33495651330 (4m)</name></wpt><wpt lat="42.55779" lon="3.03126"><name>Paris-Roussillon - Argeles sur Mer (66) (01/03 &gt;+33468811971 (5m)</name></wpt><wpt lat="42.56057" lon="3.02024"><name>Soleil Sud - Argeles sur Mer (66) (12/04 &gt;+33468952727 (4m)</name></wpt><wpt lat="42.56233" lon="2.35978"><name>Le Rotja - Fuilla (66) (05/04-11/10) &gt;+33468965275 -CCA(545m)</name></wpt><wpt lat="42.56375" lon="3.03462"><name>Les Marsouins - Argeles sur Mer (66) (05/04 &gt;+33468811481 -CCA(2m)</name></wpt><wpt lat="42.56454" lon="2.3892"><name>Les Closes - Corneilla de Conflent (66) (12/04 &gt;+33468965229 (615m)</name></wpt><wpt lat="42.56627" lon="2.41967"><name>Les Sauterelles - Fillols (66) [&lt;51] (07/12 &gt;+33468056372 (845m)</name></wpt><wpt lat="42.56697" lon="2.99951"><name>Al Sol - Argeles sur Mer (66) (01/03 &gt;+33468810413 (9m)</name></wpt><wpt lat="42.56769" lon="3.04415"><name>Le Roussillonnais - Argeles sur Mer (66) (10/05 &gt;+33468811042 (2m)</name></wpt><wpt lat="42.56832" lon="3.01092"><name>Au Flamenco - Argeles sur Mer (66) &gt;+33468813316 (5m)</name></wpt><wpt lat="42.56855" lon="3.00345"><name>Le Texas - Argeles sur Mer (66) &gt;+33468810017 (11m)</name></wpt><wpt lat="42.56987" lon="3.03419"><name>Sol y Mar - Argeles sur Mer (66) &gt;+33468812421 (1m)</name></wpt><wpt lat="42.57018" lon="3.01254"><name>l'Etoile d'Or - Argeles sur Mer (66) &gt;+33468810434 (5m)</name></wpt><wpt lat="42.5702" lon="3.00671"><name>Taxo Les Pins - Argeles sur Mer (66) &gt;+33468810605 (9m)</name></wpt><wpt lat="42.57091" lon="3.02933"><name>La Sirene - Argeles sur Mer (66) &gt;+33468810461 (3m)</name></wpt><wpt lat="42.57095" lon="2.9995"><name>La Roseraie - Argeles sur Mer (66) (19/04-27/09) &gt;+33468811703 -CCA(8m)</name></wpt><wpt lat="42.57101" lon="3.03125"><name>l'Hippocampe - Argeles sur Mer (66) (19/04 &gt;+33468810461 (2m)</name></wpt><wpt lat="42.57243" lon="3.04105"><name>La Marende - Argeles sur Mer (66) (16/05 &gt;+33468811209 -CCA(2m)</name></wpt><wpt lat="42.57247" lon="3.02172"><name>Le Dauphin - Argeles sur Mer (66) (16/05-21/09) &gt;+33468811754 -CCA(5m)</name></wpt><wpt lat="42.57258" lon="3.02618"><name>Les Galets - Argeles sur Mer (66) (01/04 &gt;+33468810812 (3m)</name></wpt><wpt lat="42.5727" lon="3.01458"><name>Le Pearl - Argeles sur Mer (66) (07/05 &gt;+33468812649 (5m)</name></wpt><wpt lat="42.57294" lon="3.02076"><name>Les Cedres - Argeles sur Mer (66) (01/01 &gt;+33468810382 (6m)</name></wpt><wpt lat="42.57337" lon="2.99696"><name>Saint Andre - Argeles sur Mer (66) (15/04 &gt;+33468810802 (10m)</name></wpt><wpt lat="42.57552" lon="3.04232"><name>Le Soleil - Argeles sur Mer (66) (07/05-20/09) &gt;+33468811448 -CCA(1m)</name></wpt><wpt lat="42.57588" lon="2.96467"><name>Le Haras - Palau del Vidre (66) (01/04-30/09) &gt;+33468221450 -CCpg185-CCA(19m)</name></wpt><wpt lat="42.57614" lon="2.3447"><name>Mas de Lastourg - Villefranche de Conflent (66) (12/04 &gt;+33468053525 (487m)</name></wpt><wpt lat="42.57991" lon="3.03671"><name>l'Equinoxe - Argeles sur Mer (66) (12/04 &gt;+33468810021 (2m)</name></wpt><wpt lat="42.5806" lon="3.033"><name>Le Littoral - Argeles sur Mer (66) (05/04 &gt;+33468811774 (3m)</name></wpt><wpt lat="42.58199" lon="2.10583"><name>Le Lac - Matemale (66) (12/04 &gt;+33468309449 (1549m)</name></wpt><wpt lat="42.58394" lon="8.82209"><name>Monte Orto - Lumio (20) (07/12 &gt;+33495607393 (173m)</name></wpt><wpt lat="42.59035" lon="8.84804"><name>Le Panoramic - Lumio (20) (01/03 &gt;+33495607313 -CCA(222m)</name></wpt><wpt lat="42.5917" lon="1.80417"><name>Municipal La Porte des Cimes - L'Hospitalet Pres l'Andorre (9) (10/05 &gt;+33561052110 (1433m)</name></wpt><wpt lat="42.59209" lon="2.98055"><name>Municipal Les Padraguets - Elne (66) [&lt;51] &gt;+33468222159 (12m)</name></wpt><wpt lat="42.59931" lon="3.03764"><name>Cala Gogo - Saint Cyprien (66) (07/05-20/09) &gt;+33468210712 -CCA(0m)</name></wpt><wpt lat="42.60316" lon="2.39849"><name>Bellevue - Ria Sirach (66) &gt;+33682118567 (466m)</name></wpt><wpt lat="42.60384" lon="8.88457"><name>Cantarettu City - Aregno (20) &gt;+33495607089 (26m)</name></wpt><wpt lat="42.60639" lon="8.86866"><name>Cala Di Sole - Algajola (20) &gt;+33495607398 (6m)</name></wpt><wpt lat="42.60643" lon="2.91644"><name>Aire naturelle La Mignane - Elne (66) [&lt;51] &gt;+33468210097 (19m)</name></wpt><wpt lat="42.60695" lon="2.99098"><name>Le Florida - Elne (66) (01/01-31/12) &gt;+33468378088 -CCA(9m)</name></wpt><wpt lat="42.60749" lon="8.88773"><name>Aire naturelle Balanea - Corbara (20) [&lt;51] &gt;+33495600684 (22m)</name></wpt><wpt lat="42.60863" lon="8.87375"><name>De La Plage - Algajola (20) &gt;+33495607176 (4m)</name></wpt><wpt lat="42.60878" lon="2.09106"><name>La Deveze - Formigueres (66) &gt;+33468046673 (1584m)</name></wpt><wpt lat="42.60892" lon="8.8754"><name>A Marina - Aregno (20) &gt;+33495607541 (5m)</name></wpt><wpt lat="42.61236" lon="2.9836"><name>Al Mouly - Elne (66) &gt;+33468220846 (7m)</name></wpt><wpt lat="42.61495" lon="2.81355"><name>Municipal Trouillas** - Trouillas (01/07-31/08) &gt;+33468530617 (81m)</name></wpt><wpt lat="42.61661" lon="2.50148"><name>Le Canigou - Espira de Conflent (66) (15/04-26/10) &gt;+33468058540 -CCA(307m)</name></wpt><wpt lat="42.61864" lon="3.01596"><name>Le Roussillon - Saint Cyprien (66) &gt;+33468210645 (1m)</name></wpt><wpt lat="42.62122" lon="2.42284"><name>Municipal Plaine St Martin - Prades (66) [&lt;51] &gt;+33468962983 (332m)</name></wpt><wpt lat="42.62334" lon="8.94869"><name>l'Orniccio - Monticello (20) &gt;+33495601732 (101m)</name></wpt><wpt lat="42.62462" lon="3.02592"><name>Le Soleil de la Mediterranee - Saint Cyprien (66) (01/01-31/12) &gt;+33468210797 -CCpg186(0m)</name></wpt><wpt lat="42.62569" lon="3.00267"><name>Municipal Bosc d'en Roug - Saint Cyprien (66) &gt;+33468212350 (4m)</name></wpt><wpt lat="42.62658" lon="8.91595"><name>Bodri - Corbara (20) &gt;+33495601086 (29m)</name></wpt><wpt lat="42.62738" lon="9.01112"><name>Clos Des Chenes - Belgodere (20) &gt;+33495604127 (25m)</name></wpt><wpt lat="42.62888" lon="9.46737"><name>San Damiano - Biguglia (20) &gt;+33495336802 (1m)</name></wpt><wpt lat="42.63116" lon="8.95268"><name>Les Oliviers - Monticello (20) &gt;+33495601992 (34m)</name></wpt><wpt lat="42.63764" lon="2.89818"><name>Les Rives du Lac** - Villeneuve de la Raho (01/04-31/10) &gt;+33468558351 (24m)</name></wpt><wpt lat="42.63797" lon="9.01974"><name>Le Belgodere - Belgodere (20) &gt;+33495602020 (20m)</name></wpt><wpt lat="42.63822" lon="2.98407"><name>Cap Sud - Alenya (66) [&lt;51] &gt;+33468221726 -CCA(6m)</name></wpt><wpt lat="42.64273" lon="2.53353"><name>Municipal Les Escoumes - Vinca (66) &gt;+33468058478 (259m)</name></wpt><wpt lat="42.64654" lon="1.83095"><name>Municipal Ville De Bau - Merens Les Vals (9) &gt;+33561028540 (1097m)</name></wpt><wpt lat="42.6497" lon="2.96127"><name>Ferme Mas Las Planes - Alenya (66) [&lt;51] &gt;+33683515113 (13m)</name></wpt><wpt lat="42.65091" lon="2.38926"><name>Municipal Molitg les Bains - Molitg les Bains (66) [&lt;51] &gt;+33468050212 (603m)</name></wpt><wpt lat="42.65382" lon="9.06677"><name>De L'Ostriconi - Palasca (20) &gt;+33495601005 (19m)</name></wpt><wpt lat="42.66565" lon="9.30014"><name>La Pinede - Saint Florent (20) [&lt;51] &gt;+33495370726 (5m)</name></wpt><wpt lat="42.66822" lon="2.70536"><name>Le Pont d'Espagne - Camelas (66) &gt;+33468571057 (119m)</name></wpt><wpt lat="42.67167" lon="2.62901"><name>Municipal Ille sur Tet - Ille sur Tet (66) &gt;+33468847240 (143m)</name></wpt><wpt lat="42.67228" lon="2.98919"><name>Les Flamants Roses - Saint Nazaire (66) &gt;+33468802103 (3m)</name></wpt><wpt lat="42.67341" lon="9.44495"><name>Les Sables Rouges - Bastia (20) &gt;+33495333608 (7m)</name></wpt><wpt lat="42.67354" lon="9.29702"><name>Kalliste - Saint Florent (20) &gt;+33495370308 (1m)</name></wpt><wpt lat="42.67394" lon="9.29205"><name>U Pezzo - Saint Florent (20) &gt;+33495370165 (5m)</name></wpt><wpt lat="42.67403" lon="9.28677"><name>Acqua Dolce - Saint Florent (20) &gt;+33495370863 (3m)</name></wpt><wpt lat="42.6754" lon="3.0312"><name>Mar Estang - Canet en Roussillon (66) (26/04-14/09) &gt;+33468803553 -CCA(1m)</name></wpt><wpt lat="42.68893" lon="2.99911"><name>Les Fontaines - Canet en Roussillon (66) &gt;+33971572301 (2m)</name></wpt><wpt lat="42.69067" lon="2.65785"><name>La Garenne - Nefiach (66) (01/03-31/10) &gt;+33468571576 -CCA(119m)</name></wpt><wpt lat="42.69355" lon="9.32661"><name>d'Olzo - Saint Florent (20) &gt;+33495370334 (9m)</name></wpt><wpt lat="42.69457" lon="2.86587"><name>La Garrigole* - Perpignan [&lt;51] (01/01-31/12) &gt;+33468546610 (42m)</name></wpt><wpt lat="42.69518" lon="2.0969"><name>Le Bosquet - Querigut (9) &gt;+33607539378 (1217m)</name></wpt><wpt lat="42.70009" lon="3.0339"><name>Le Miami - Canet en Roussillon (66) [&lt;51] &gt;+33468803771 (2m)</name></wpt><wpt lat="42.70108" lon="2.99865"><name>Ma Prairie - Canet en Roussillon (66) (12/04-20/09) &gt;+33468732617 -CCpg187-CCA-BD_FR-Q.084(6m)</name></wpt><wpt lat="42.70227" lon="1.88338"><name>Municipal D'Orlu - Orlu (9) &gt;+33561643009 (846m)</name></wpt><wpt lat="42.70675" lon="3.0305"><name>Les Peupliers - Canet en Roussillon (66) &gt;+33468803587 (3m)</name></wpt><wpt lat="42.70825" lon="3.03543"><name>Le Brasilia - Canet en Roussillon (66) &gt;+33468802382 (3m)</name></wpt><wpt lat="42.70909" lon="3.03293"><name>Le Bosquet - Canet en Roussillon (66) (12/04-05/10) &gt;+33468802380 -CCA(6m)</name></wpt><wpt lat="42.71037" lon="2.07612"><name>Municipal La Pradaille - Le Pla (9) &gt;+33561204914 (1174m)</name></wpt><wpt lat="42.71393" lon="3.03146"><name>Sainte Marie - Sainte Marie (66) (05/04-01/11) &gt;+33468804810 -CCA(5m)</name></wpt><wpt lat="42.71786" lon="9.32976"><name>Aire naturelle U Sole Marinu - Patrimonio (20) [&lt;51] &gt;+33495371220 (14m)</name></wpt><wpt lat="42.72021" lon="9.33568"><name>La Ferme de Catarelli (tents only) - Patrimonio (20) [&lt;51] (15/04-15/09) &gt;+33495370284 (17m)</name></wpt><wpt lat="42.72058" lon="9.20258"><name>U Paradisu - Santo Pietro Di Tenda (20) [&lt;51] &gt;+33495378251 (7m)</name></wpt><wpt lat="42.72425" lon="1.89299"><name>Ascou la Forge - Ascou (9) [&lt;51] (01/01-31/12) &gt;+33561646003 (1115m)</name></wpt><wpt lat="42.72662" lon="3.0331"><name>La Pergola - Sainte Marie (66) (12/04-21/09) &gt;+33468730307 -CCpg188-CCA(1m)</name></wpt><wpt lat="42.72802" lon="-0.00744"><name>Aire naturelle La Bergerie - Gavarnie (65) [&lt;51] &gt;+33562924841 (1408m)</name></wpt><wpt lat="42.72841" lon="3.02477"><name>Le Lamparo - Sainte Marie (66) &gt;+33468738387 (2m)</name></wpt><wpt lat="42.72846" lon="1.82539"><name>Le Malazeou - Ax les Thermes (9) (07/12-11/11) &gt;+33561646914 -CCA(705m)</name></wpt><wpt lat="42.7285" lon="2.44098"><name>La Source - Sournia (66) &gt;+33468960813 (545m)</name></wpt><wpt lat="42.72923" lon="9.34244"><name>A Stella - Farinole (20) &gt;+33495371437 (21m)</name></wpt><wpt lat="42.72988" lon="1.81336"><name>Du Fournil - Savignac les Ormeaux (9) &gt;+33561642440 (680m)</name></wpt><wpt lat="42.73003" lon="2.92227"><name>Catalan** - Perpignan (15/03-31/10) &gt;+33468631692 (16m)</name></wpt><wpt lat="42.73276" lon="3.03122"><name>Le Florida - Sainte Marie (66) &gt;+33561684523 (2m)</name></wpt><wpt lat="42.73297" lon="1.8539"><name>Municipal La Prade - Sorgeat (9) [&lt;51] &gt;+33561643634 (1145m)</name></wpt><wpt lat="42.73471" lon="2.5748"><name>Municipal La Bade - Caramany (66) [&lt;51] &gt;+33468845185 (261m)</name></wpt><wpt lat="42.7369" lon="2.19921"><name>Madres Pyrenees - Roquefort De Sault (11) [&lt;51] &gt;+33468206314 (975m)</name></wpt><wpt lat="42.73926" lon="3.03396"><name>La Plage - Sainte Marie (66) (01/03-31/10) &gt;+33468806859 -CCA(1m)</name></wpt><wpt lat="42.74026" lon="3.03363"><name>Le Palais de la Mer - Sainte Marie (66) (10/05-27/09) &gt;+33468730794 -CCA(2m)</name></wpt><wpt lat="42.74156" lon="9.46016"><name>M. Casanova - Santa Maria Di Lota (20) &gt;+33495339142 (5m)</name></wpt><wpt lat="42.75349" lon="0.08057"><name>Auberge de la Munia - Gedre (65) [&lt;51] &gt;+33562924839 (1505m)</name></wpt><wpt lat="42.7593" lon="1.76431"><name>Municipal Le Castella - Luzenac (9) &gt;+33561644753 (607m)</name></wpt><wpt lat="42.75973" lon="0.00132"><name>Le Pain de Sucre - Gavarnie (65) [&lt;51] &gt;+33562924755 (1240m)</name></wpt><wpt lat="42.76342" lon="1.48242"><name>Municipal La Verniere - Auzat (9) [&lt;51] &gt;+33561648446 (733m)</name></wpt><wpt lat="42.76533" lon="3.03159"><name>Les Dunes*** - Torreilles (20/03-15/10) &gt;+33468283829 (1m)</name></wpt><wpt lat="42.76543" lon="3.02758"><name>La Palmeraie*** - Torreilles (05/04-30/09) &gt;+33442204725 (2m)</name></wpt><wpt lat="42.76571" lon="3.0269"><name>Le Trivoly**** - Torreilles (66) (05/04-20/09) &gt;+33251330505 -CCA(2m)</name></wpt><wpt lat="42.76577" lon="2.66557"><name>La Tour de France - Latour de France (66) [&lt;51] &gt;+33468291610 -CCA(91m)</name></wpt><wpt lat="42.76697" lon="2.88339"><name>Le Soleil 2000*** - Rivesaltes [&lt;51] (01/04-31/10) &gt;+33468385354 (20m)</name></wpt><wpt lat="42.76757" lon="3.03286"><name>Mar I Sol *** - Torreilles Plage (15/04-20/09) &gt;+33468280407 (1m)</name></wpt><wpt lat="42.7676" lon="3.0282"><name>Le Calypso*** - Torreilles (01/04-30/09) &gt;+33468280947 (2m)</name></wpt><wpt lat="42.76773" lon="3.02974"><name>Les Tropiques*** - Torreilles (66) (15/04-30/09) &gt;+33468280509 -CCA-BD_FR-Q.089(2m)</name></wpt><wpt lat="42.76858" lon="1.49249"><name>La Bexanelle - Vicdessos (9) &gt;+33561648222 (717m)</name></wpt><wpt lat="42.77252" lon="1.67158"><name>Le Pas De L'Ours - Aston (9) [&lt;51] (01/06-15/09) &gt;+33561649033 (575m)</name></wpt><wpt lat="42.7731" lon="2.28498"><name>Tam Tam Lodge - Salvezines (11) [&lt;51] &gt;+33468691146 (1037m)</name></wpt><wpt lat="42.77444" lon="1.70328"><name>Municipal La Coume - Albies (9) &gt;+33561649899 (560m)</name></wpt><wpt lat="42.77483" lon="3.02098"><name>Club l'Europe*** - Le Barcares (01/01-31/12) &gt;+33468861536 (2m)</name></wpt><wpt lat="42.77528" lon="3.02032"><name>Les Tamaris - Le Barcares (66) (15/04-30/09) &gt;+33468860818 (2m)</name></wpt><wpt lat="42.77577" lon="3.02293"><name>California*** - Le Barcares (66) (01/05-28/09) &gt;+33468861608 -CCA(3m)</name></wpt><wpt lat="42.7764" lon="3.02854"><name>Club Le Soleil Bleu*** - Le Barcares (01/04-30/09) &gt;+33468861550 (3m)</name></wpt><wpt lat="42.77649" lon="3.02477"><name>l'Oasis*** - Le Barcares (01/05-15/09) &gt;+33468861243 -CCpg189(3m)</name></wpt><wpt lat="42.77666" lon="0.60106"><name>Chantecler - Bagneres de Luchon [&lt;51] &gt;+33561881533 (654m)</name></wpt><wpt lat="42.77668" lon="3.02759"><name>La Croix du Sud*** - Le Barcares (01/04-30/09) &gt;+33468861661 (3m)</name></wpt><wpt lat="42.77764" lon="1.76021"><name>La Ferme de Berbescou- Lordat (9) [&lt;51] (01/05-15/10) &gt;+33561644577 (936m)</name></wpt><wpt lat="42.77776" lon="0.60012"><name>Au Fil de l'Oo - Bagneres de Luchon (31) &gt;+33561793074 (652m)</name></wpt><wpt lat="42.77867" lon="3.02995"><name>Le Floride et l'Embouchure*** - Le Barcares (66) (01/04-30/09) &gt;+33468861175 -CCA(4m)</name></wpt><wpt lat="42.78037" lon="0.59814"><name>Les Thermes - Bagneres de Luchon (31) [&lt;51] &gt;+33561790385 (657m)</name></wpt><wpt lat="42.78117" lon="3.0229"><name>Le Pre Catalan**** - Le Barcares (01/05-20/09) &gt;+33468861260 -CCA(1m)</name></wpt><wpt lat="42.78241" lon="0.015"><name>Aire naturelle Les Tilleuls - Gedre (65) [&lt;51] (15/04-01/10) &gt;+33562924892 (1090m)</name></wpt><wpt lat="42.7829" lon="0.01463"><name>Le Bellevue - Gedre (65) [&lt;51] &gt;+33562924840 (1098m)</name></wpt><wpt lat="42.78609" lon="3.01919"><name>Bahia Club** - Le Barcares (01/06-15/09) &gt;+33468809016 (0m)</name></wpt><wpt lat="42.78619" lon="0.24694"><name>Municipal Du Pont de Moudang - Aragnouet (65) [&lt;51] &gt;+33562396284 (1073m)</name></wpt><wpt lat="42.78624" lon="3.02527"><name>Las Bousigues *** - Le Barcares (15/04-15/09) &gt;+33468861619 (2m)</name></wpt><wpt lat="42.78663" lon="1.69162"><name>Municipal Le Bois de Boulogne - Les Cabannes (9) &gt;+33561647745 (539m)</name></wpt><wpt lat="42.78878" lon="0.23737"><name>Fouga - Aragnouet (65) &gt;+33562396337 (1155m)</name></wpt><wpt lat="42.78885" lon="2.38673"><name>Des Randonneurs - Fenouillet [&lt;51] (15/04-15/10) &gt;+33468590550 (472m)</name></wpt><wpt lat="42.79035" lon="1.17769"><name>Ferme des Bouries - Seix (9) [&lt;51] &gt;+33561048584 (855m)</name></wpt><wpt lat="42.79161" lon="1.92488"><name>Les Sapins - Camurac (11) [&lt;51] &gt;+33468203811 (1276m)</name></wpt><wpt lat="42.79213" lon="1.69141"><name>La Ferme d'Emprau - Verdun (9) [&lt;51] &gt;+33561647035 (562m)</name></wpt><wpt lat="42.7927" lon="0.01726"><name>Le Mouscat - Gedre (65) [&lt;51] &gt;+33562924753 (999m)</name></wpt><wpt lat="42.79402" lon="1.33197"><name>Le Couledous - Aulus les Bains (9) [&lt;51] &gt;+33561664356 (740m)</name></wpt><wpt lat="42.79464" lon="0.60796"><name>Arome Vanille - Montauban De Luchon (31) &gt;+33561790038 (631m)</name></wpt><wpt lat="42.79659" lon="0.40652"><name>Pene Blanche - Loudenvielle (65) (21/12-03/11) &gt;+33562996885 -CCA(944m)</name></wpt><wpt lat="42.7977" lon="1.26374"><name>Municipal Ustou - Ustou (9) &gt;+33561669221 (748m)</name></wpt><wpt lat="42.801" lon="1.58847"><name>La Prairie - Capoulet Junac (9) &gt;+33561058181 (571m)</name></wpt><wpt lat="42.80167" lon="0.0131"><name>Le Relais d'Espagne - Gedre (65) [&lt;51] &gt;+33562924770 (982m)</name></wpt><wpt lat="42.80521" lon="3.02681"><name>La Presqu'ile - Le Barcares (66) &gt;+33468861280 (0m)</name></wpt><wpt lat="42.80762" lon="2.50235"><name>l'Agly - Saint Paul de Fenouillet (66) &gt;+33468590909 (251m)</name></wpt><wpt lat="42.80782" lon="2.60579"><name>Maurynate - Maury (66) [&lt;51] &gt;+33468591524 (142m)</name></wpt><wpt lat="42.80795" lon="2.25404"><name>La Cremade - Axat (11) &gt;+33468205064 (498m)</name></wpt><wpt lat="42.80837" lon="0.59768"><name>Pradelongue - Moustajon (31) (01/04-30/09) &gt;+33561798644 -CCA(618m)</name></wpt><wpt lat="42.8093" lon="0.52005"><name>Les Frenes - Garin (31) [&lt;51] &gt;+33561798844 (1111m)</name></wpt><wpt lat="42.81081" lon="1.89122"><name>Le Silence Du Midi - Comus (11) [&lt;51] &gt;+33468203626 (1171m)</name></wpt><wpt lat="42.81117" lon="1.25571"><name>Le Montagnou - Ustou (9) [&lt;51] &gt;+33561669497 (681m)</name></wpt><wpt lat="42.81172" lon="9.48586"><name>La Casaiola - Sisco (20) [&lt;51] &gt;+33495352010 (14m)</name></wpt><wpt lat="42.81175" lon="2.37529"><name>Municipal Caudies de Fenouilledes - Caudies de Fenouilledes (66) [&lt;51] (15/06-31/08) &gt;+33468599225 (349m)</name></wpt><wpt lat="42.81236" lon="2.23876"><name>Le Moulin Du Pont D 'Alies - Axat (11) &gt;+33468205327 (394m)</name></wpt><wpt lat="42.81358" lon="1.58921"><name>Des Grottes - Alliat (9) (01/03-25/10) &gt;+33561058821 -CCpg161-CCA(551m)</name></wpt><wpt lat="42.8144" lon="2.73979"><name>Le Priourat - Tautavel (66) [&lt;51] &gt;+33468294145 (100m)</name></wpt><wpt lat="42.81549" lon="0.32297"><name>Municipal De Saint-Lary Soulan - Saint Lary Soulan (65) &gt;+33562394158 (800m)</name></wpt><wpt lat="42.81598" lon="1.95098"><name>Les Chalets du Lac - Belcaire (11) &gt;+33468203123 (1025m)</name></wpt><wpt lat="42.81651" lon="0.59995"><name>Les Myrtilles - Moustajon (31) &gt;+33561798989 (613m)</name></wpt><wpt lat="42.81716" lon="1.63449"><name>Ariege Evasion - Ornolac Ussat Les Bains (9) &gt;+33561051111 (494m)</name></wpt><wpt lat="42.81739" lon="0.40504"><name>Le Lustou - Adervielle Pouchergues (65) &gt;+33562996827 (938m)</name></wpt><wpt lat="42.81945" lon="1.99531"><name>De La Mare Aux Fees - Roquefeuil (11) [&lt;51] &gt;+33468205545 (939m)</name></wpt><wpt lat="42.82235" lon="0.60627"><name>Le Pyreneen - Salles et Pratviel (31) &gt;+33561795919 (616m)</name></wpt><wpt lat="42.82324" lon="0.32957"><name>d'Autun - Saint Lary Soulan (65) &gt;+33562394031 (805m)</name></wpt><wpt lat="42.82357" lon="2.02098"><name>Municipal Le Calcat - Espezel (11) [&lt;51] (01/05-31/10) &gt;+33468203034 (895m)</name></wpt><wpt lat="42.82545" lon="0.31884"><name>Artiguette - Vignec (65) &gt;+33562395224 (800m)</name></wpt><wpt lat="42.82738" lon="0.33598"><name>La Mousquere - Bourisp (65) [&lt;51] &gt;+33562394499 (798m)</name></wpt><wpt lat="42.83168" lon="0.00159"><name>Saint Bazerque - Luz Saint Sauveur (65) [&lt;51] &gt;+33562924993 (859m)</name></wpt><wpt lat="42.83341" lon="2.90424"><name>Le Bois de Pins* - Salses le Chateau (01/04-31/10) &gt;+33468386844 (50m)</name></wpt><wpt lat="42.83739" lon="0.40694"><name>Municipal Le Hourgade - Avajan (65) &gt;+33562996986 (921m)</name></wpt><wpt lat="42.83803" lon="0.33912"><name>Le Rioumajou - Saint Lary Soulan (65) (01/01-31/12) &gt;+33562394832 -CCA(778m)</name></wpt><wpt lat="42.83897" lon="9.4735"><name>La Pietra - Pietracorbara (20) (20/03-04/11) &gt;+33495352749 -CCA(6m)</name></wpt><wpt lat="42.83978" lon="1.61176"><name>Le Pre Lombard - Tarascon sur Ariege (9) (12/04-30/09) &gt;+33561056194 -CCA-BD_FR-P.085b(478m)</name></wpt><wpt lat="42.84357" lon="2.92664"><name>International Le Roussillon** - Salses le Chateau (01/01-31/12) &gt;+33468386072 -CCA(9m)</name></wpt><wpt lat="42.84489" lon="0.33857"><name>Le Lustou - Vielle Aure (65) &gt;+33562394064 (777m)</name></wpt><wpt lat="42.84733" lon="9.44027"><name>U Licetu - Pietracorbara (20) [&lt;51] &gt;+33495352598 (83m)</name></wpt><wpt lat="42.8481" lon="0.34664"><name>La Neste - Guchan (65) [&lt;51] &gt;+33562399160 (760m)</name></wpt><wpt lat="42.84917" lon="3.04042"><name>Rives des Corbieres - Leucate (11) (01/04-15/10) &gt;+33468409031 -CCA(3m)</name></wpt><wpt lat="42.8525" lon="2.46962"><name>A la Ferme Au Vieux Moulin - Cubieres sur Cinoble (11) &gt;+33468698149 (419m)</name></wpt><wpt lat="42.85362" lon="0.60215"><name>Le Castera - Cier De Luchon (31) [&lt;51] &gt;+33561793083 (595m)</name></wpt><wpt lat="42.85583" lon="1.58803"><name>Le Sedour - Surba (9) (01/01-31/12) &gt;+33561058728 -CCA-BD_FR-P.085(492m)</name></wpt><wpt lat="42.85669" lon="1.59791"><name>Aire naturelle de Da Costa - Arignac (9) [&lt;51] &gt;+33561057801 (472m)</name></wpt><wpt lat="42.86384" lon="0.34097"><name>Le Lavedan - Guchen (65) (15/06-15/09) &gt;+33562399021 (767m)</name></wpt><wpt lat="42.86388" lon="0.3607"><name>Le Ruisseau - Gouaux (65) &gt;+33562399549 (930m)</name></wpt><wpt lat="42.86976" lon="-0.00254"><name>Les Cascades - Luz Saint Sauveur (65) &gt;+33562928585 (747m)</name></wpt><wpt lat="42.87018" lon="1.20994"><name>Municipal La Cote - Oust (9) &gt;+33676516754 (504m)</name></wpt><wpt lat="42.87122" lon="0.73629"><name>Municipal Fos - Fos (31) &gt;+33561793594 (542m)</name></wpt><wpt lat="42.87136" lon="1.20556"><name>Le Haut Salat - Seix (9) &gt;+33561668178 (508m)</name></wpt><wpt lat="42.87159" lon="1.62217"><name>Du Lac - Mercus (9) [&lt;51] (30/03-29/09) &gt;+33561059061 (464m)</name></wpt><wpt lat="42.87216" lon="1.22058"><name>Les 4 Saisons - Oust (9) &gt;+33561965555 (512m)</name></wpt><wpt lat="42.8724" lon="-0.01523"><name>Le Hounta - Sassis (65) &gt;+33562929590 (679m)</name></wpt><wpt lat="42.87334" lon="-0.00216"><name>Toy - Luz Saint Sauveur (65) &gt;+33562928685 (709m)</name></wpt><wpt lat="42.87352" lon="0.00305"><name>Le Bergons - Esterre (65) &gt;+33562929077 (741m)</name></wpt><wpt lat="42.87359" lon="2.17555"><name>Municipal La Sapinette - Quillan (11) (01/04-31/10) &gt;+33468201352 (316m)</name></wpt><wpt lat="42.87452" lon="0.00555"><name>Le Bastan - Esterre (65) &gt;+33562929427 (760m)</name></wpt><wpt lat="42.87515" lon="0.95767"><name>Municipal La Grange - Sentein (9) [&lt;51] &gt;+33561048023 (725m)</name></wpt><wpt lat="42.87684" lon="-0.55656"><name>Municipal Le Gave d'Aspe - Urdos (64) &gt;+33559348826 (754m)</name></wpt><wpt lat="42.87685" lon="1.54977"><name>Montorgueil - Saurat (9) [&lt;51] &gt;+33561051290 (628m)</name></wpt><wpt lat="42.87771" lon="-0.00826"><name>Aire Naturelle La Grange Bigourdane - Esquieze Sere (65) [&lt;51] &gt;+33562928743 (689m)</name></wpt><wpt lat="42.87976" lon="-0.01079"><name>Les Pyrenees - Esquieze Sere (65) (05/05-28/09) &gt;+33562928918 -CCA(677m)</name></wpt><wpt lat="42.88068" lon="1.89496"><name>Les Buis - Fougax et Barrineuf (9) [&lt;51] &gt;+33534146069 (540m)</name></wpt><wpt lat="42.88221" lon="-0.02233"><name>Pyrenevasion - Sazos (65) (20/11-20/10) &gt;+33562929154 -CCA(820m)</name></wpt><wpt lat="42.88275" lon="-0.01351"><name>International - Luz St Sauveur (65) (18/05-30/09) &gt;+33562928202 -CCA(670m)</name></wpt><wpt lat="42.88353" lon="2.71613"><name>La Peiriere - Tuchan (11) &gt;+33468454650 (152m)</name></wpt><wpt lat="42.88441" lon="0.34846"><name>Aire naturelle de Bernard - Cadeac (65) [&lt;51] &gt;+33608723553 (740m)</name></wpt><wpt lat="42.88637" lon="9.47178"><name>Santa Marina - Luri (20) [&lt;51] &gt;+33495350286 (1m)</name></wpt><wpt lat="42.88816" lon="1.34446"><name>Municipal du Pouech - Massat (9) [&lt;51] &gt;+33561049522 (672m)</name></wpt><wpt lat="42.88864" lon="1.25566"><name>La Bernadole - Aleu (9) [&lt;51] &gt;+33561968991 (750m)</name></wpt><wpt lat="42.89005" lon="2.7239"><name>Le Relais D'Aguilar - Tuchan (11) &gt;+33468454784 (157m)</name></wpt><wpt lat="42.89191" lon="1.34939"><name>Le Vieux Moulin - Massat (9) [&lt;51] &gt;+33561969666 (627m)</name></wpt><wpt lat="42.89206" lon="1.31218"><name>L'Azaigouat - Biert (9) [&lt;51] &gt;+33561969503 (613m)</name></wpt><wpt lat="42.8926" lon="1.21333"><name>La Claire - Soueix Rogalle (9) &gt;+33561666276 (475m)</name></wpt><wpt lat="42.89302" lon="2.1046"><name>Du Fontaulie Sud - Nebias (11) &gt;+33468201762 (582m)</name></wpt><wpt lat="42.89399" lon="1.79354"><name>Fount de Sicre - Montferrier (9) [&lt;51] &gt;+33561012097 (690m)</name></wpt><wpt lat="42.89435" lon="-0.1126"><name>Les Gleres - Cauterets (65) &gt;+33562925534 (902m)</name></wpt><wpt lat="42.89458" lon="0.05743"><name>La Ribere - Bareges (65) [&lt;51] &gt;+33680012951 (1188m)</name></wpt><wpt lat="42.89637" lon="-0.11223"><name>La Prairie - Cauterets (65) [&lt;51] &gt;+33562920704 (898m)</name></wpt><wpt lat="42.8965" lon="-0.02707"><name>Le Nere - Saligos (65) &gt;+33562928130 (636m)</name></wpt><wpt lat="42.89733" lon="-0.11491"><name>La Vignemale - Cauterets (65) &gt;+33562925208 (942m)</name></wpt><wpt lat="42.89771" lon="-0.02782"><name>So De Prous - Saligos (65) &gt;+33562928241 (629m)</name></wpt><wpt lat="42.89775" lon="1.31432"><name>Municipal Biert - Biert (9) [&lt;51] &gt;+33561969892 (588m)</name></wpt><wpt lat="42.89963" lon="-0.11243"><name>Les Bergeronnettes - Cauterets (65) [&lt;51] &gt;+33562925069 (884m)</name></wpt><wpt lat="42.90099" lon="0.35458"><name>Municipal Arreau - Arreau (65) &gt;+33562986556 (720m)</name></wpt><wpt lat="42.90116" lon="3.05302"><name>Mer-Sable-Soleil** - Leucate (25/03-10/11) &gt;+33468400090 (3m)</name></wpt><wpt lat="42.90217" lon="-0.1084"><name>Le Saillet - Cauterets (65) [&lt;51] &gt;+33607615112 (862m)</name></wpt><wpt lat="42.90254" lon="-0.10605"><name>Le Peguere - Cauterets (65) &gt;+33562925291 (861m)</name></wpt><wpt lat="42.90301" lon="3.05162"><name>Municipal Du Cap Leucate** - Leucate (01/02-30/11) &gt;+33468489688 (4m)</name></wpt><wpt lat="42.90328" lon="-0.10713"><name>Le Cabaliros - Cauterets (65) (24/05-30/09) &gt;+33562925536 -CCA(854m)</name></wpt><wpt lat="42.90441" lon="-0.21208"><name>Lac d'Estaing - Estaing (65) &gt;+33562972446 (1180m)</name></wpt><wpt lat="42.90457" lon="1.83271"><name>Le Mathibot - Benaix (9) [&lt;51] (01/01-31/12) &gt;+33561018636 (630m)</name></wpt><wpt lat="42.90841" lon="1.93752"><name>Municipal Du Val D'Amour - Belesta (9) [&lt;51] &gt;+33561016002 (499m)</name></wpt><wpt lat="42.9086" lon="0.36617"><name>Aire naturelle - Pailhac (65) [&lt;51] &gt;+33562986438 (774m)</name></wpt><wpt lat="42.91003" lon="0.69119"><name>Municipal Clef De France - Saint Beat (31) &gt;+33561943539 (500m)</name></wpt><wpt lat="42.9112" lon="-0.09887"><name>Le GR10 - Cauterets (65) &gt;+33620302585 (848m)</name></wpt><wpt lat="42.91231" lon="0.69297"><name>Tei La Garonnette - Saint Beat (31) &gt;+33561794136 (499m)</name></wpt><wpt lat="42.91364" lon="2.31839"><name>La Bernede - Rennes Les Bains (11) &gt;+33468698649 -CCA(318m)</name></wpt><wpt lat="42.91403" lon="0.6396"><name>Municipal Cierp Gaud - Cierp Gaud (31) [&lt;51] &gt;+33561795073 (489m)</name></wpt><wpt lat="42.91428" lon="2.99876"><name>Le Fun** - Fitou (11) (01/04-10/11) &gt;+33468457197 -CCA(10m)</name></wpt><wpt lat="42.91578" lon="2.04419"><name>Municipal De Fontclaire - Puivert (11) &gt;+33468200058 (480m)</name></wpt><wpt lat="42.91673" lon="-0.18907"><name>La Pose - Les Colonies (65) &gt;+33562974310 (1102m)</name></wpt><wpt lat="42.92046" lon="1.02929"><name>Municipal Les Vignes - Castillon en Couserans (9) &gt;+33561967272 (520m)</name></wpt><wpt lat="42.92051" lon="2.21948"><name>Le Petit Paradis - Campagne sur Aude (11) &gt;+33468743202 (259m)</name></wpt><wpt lat="42.92351" lon="1.84487"><name>Pre Cathare - Lavelanet (9) &gt;+33689108213 (544m)</name></wpt><wpt lat="42.92476" lon="0.36636"><name>International le Refuge - Arreau (65) &gt;+33671787890 (688m)</name></wpt><wpt lat="42.92775" lon="-0.64215"><name>Municipal Le Lauzart - Lescun (64) &gt;+33559345177 (859m)</name></wpt><wpt lat="42.93056" lon="0.20463"><name>Municipal De Bagneres - Campan (65) &gt;+33562918317 (1201m)</name></wpt><wpt lat="42.93094" lon="1.63875"><name>La Roucateille - Montgaillard (9) &gt;+33561652250 (450m)</name></wpt><wpt lat="42.93151" lon="0.91934"><name>La Vie en Vert - Augirein (9) [&lt;51] &gt;+33561968266 (642m)</name></wpt><wpt lat="42.93255" lon="2.22431"><name>Municipal De La Salle - Esperaza (11) &gt;+33468740860 (237m)</name></wpt><wpt lat="42.93442" lon="3.03081"><name>La Sirene** - Leucate (15/05-15/09) &gt;+33468810461 (6m)</name></wpt><wpt lat="42.93716" lon="-0.17857"><name>Le Vieux Moulin - Estaing (65) &gt;+33562974323 (997m)</name></wpt><wpt lat="42.94134" lon="-0.1775"><name>Pyrenees Natura - Estaing (65) (01/04-15/10) &gt;+33562974544 -CCA(980m)</name></wpt><wpt lat="42.94274" lon="0.27939"><name>Les 4 Veziaux - Campan (65) [&lt;51] &gt;+33562915622 (1078m)</name></wpt><wpt lat="42.94364" lon="3.03048"><name>La Franqui - Leucate (11) (01/04-30/09) &gt;+33468457493 (2m)</name></wpt><wpt lat="42.94484" lon="0.85413"><name>Aire naturelle Les Asphodeles - Portet d'Aspet (31) [&lt;51] &gt;+33561961316 (1066m)</name></wpt><wpt lat="42.94649" lon="2.37351"><name>Du Lac - Arques (11) [&lt;51] (01/05-30/09) &gt;+33468698830 (362m)</name></wpt><wpt lat="42.95201" lon="1.95785"><name>Du S.I.V.O.M. Du Chalabrais - Sainte Colombe sur L'Hers (11) [&lt;51] &gt;+33468692220 (415m)</name></wpt><wpt lat="42.95418" lon="1.07838"><name>La Fermette - Moulis (9) [&lt;51] &gt;+33561664351 (456m)</name></wpt><wpt lat="42.95422" lon="-0.21204"><name>Aire naturelle Batbere - Arrens Marsous (65) [&lt;51] (01/01-31/12) &gt;+33562971050 (879m)</name></wpt><wpt lat="42.95693" lon="1.17694"><name>Le Pont Du Nert - Encourtiech (9) [&lt;51] &gt;+33561665848 (419m)</name></wpt><wpt lat="42.95794" lon="2.99563"><name>Naturist - Le Clapotis - La Palme (11) (11/04-10/10) &gt;+33468481540 -CCpg190-CCA(16m)</name></wpt><wpt lat="42.958" lon="-0.2098"><name>La Station - Arrens Marsous (65) [&lt;51] &gt;+33561970056 (871m)</name></wpt><wpt lat="42.95842" lon="-0.20523"><name>La Heche - Arrens Marsous (65) &gt;+33562970264 (860m)</name></wpt><wpt lat="42.95893" lon="9.35398"><name>l'Isulottu - Centuri Morsiglia (20) &gt;+33495356281 (28m)</name></wpt><wpt lat="42.95991" lon="-0.20647"><name>Aire Naturelle Mialanne - Arrens-Marsous (65) [&lt;51] (20/06-10/09) &gt;+33562926714 (869m)</name></wpt><wpt lat="42.96148" lon="-0.0791"><name>Le Larbey - Pierrefitte Nestalas (65) &gt;+33562927461 (535m)</name></wpt><wpt lat="42.96205" lon="-0.19622"><name>Le Moulian - Arrens Marsous (65) &gt;+33562974118 (860m)</name></wpt><wpt lat="42.96214" lon="-0.33889"><name>Le Plateau De Ley - Eaux Bonnes (64) [&lt;51] &gt;+33559051147 (1186m)</name></wpt><wpt lat="42.96419" lon="1.51491"><name>Municipal La Barguillere - Serres sur Arget (9) [&lt;51] &gt;+33561652380 (507m)</name></wpt><wpt lat="42.96437" lon="9.44817"><name>U Stazzo de la Plage - Rogliano (20) &gt;+33495354376 (4m)</name></wpt><wpt lat="42.96538" lon="-0.20072"><name>Le Gerrit - Arrens Marsous (65) &gt;+33562972585 (858m)</name></wpt><wpt lat="42.96706" lon="0.24515"><name>l'Oree des Monts - Campan (65) &gt;+33562918398 (941m)</name></wpt><wpt lat="42.96944" lon="-0.38141"><name>d'Iscoo - Eaux Bonnes (64) [&lt;51] &gt;+33698235493 (805m)</name></wpt><wpt lat="42.97077" lon="1.57284"><name>Municipal du Rieutort - Cos (9) &gt;+33561653979 (459m)</name></wpt><wpt lat="42.97197" lon="0.37679"><name>d'Esplantats - Sarrancolin (65) &gt;+33562987920 (629m)</name></wpt><wpt lat="42.97221" lon="0.61847"><name>Aire du Temps - Siradan [&lt;51] &gt;+33562402785 (496m)</name></wpt><wpt lat="42.97252" lon="2.9979"><name>Municipal Le Stade* - La Palme (15/06-15/09) &gt;+33468481523 (4m)</name></wpt><wpt lat="42.97344" lon="-0.18501"><name>Azun Nature - Aucun (65) (01/05-30/09) &gt;+33562974505 (844m)</name></wpt><wpt lat="42.97349" lon="-0.18405"><name>Lascrouts - Aucun (65) &gt;+33562974262 (842m)</name></wpt><wpt lat="42.97395" lon="1.16653"><name>Parc de Paletes - Saint Girons (9) [&lt;51] &gt;+33561660679 (442m)</name></wpt><wpt lat="42.97402" lon="-0.07528"><name>A la ferme de Marie-Therese Campet - Adast (65) [&lt;51] &gt;+33611171367 (440m)</name></wpt><wpt lat="42.97419" lon="0.22946"><name>Les Rives de l'Adour - Campan (65) &gt;+33562918308 (932m)</name></wpt><wpt lat="42.97433" lon="2.00275"><name>Le Cazal - Chalabre (11) [&lt;51] &gt;+33468693473 (375m)</name></wpt><wpt lat="42.97459" lon="-0.16532"><name>Le Bosquet - Bun (65) &gt;+33562970781 (800m)</name></wpt><wpt lat="42.97645" lon="0.2282"><name>Les Frenes - Campan (65) &gt;+33562918246 (921m)</name></wpt><wpt lat="42.97665" lon="0.22859"><name>Les Bulanettes - Campan (65) &gt;+33562918201 (905m)</name></wpt><wpt lat="42.97672" lon="-0.60558"><name>Despourrins - Accous (64) &gt;+33559347116 (454m)</name></wpt><wpt lat="42.97893" lon="1.66031"><name>Aire Naturelle La Clairiere- l'Herm (9) [&lt;51] (01/07-30/09) &gt;+33561016512 (548m)</name></wpt><wpt lat="42.97923" lon="1.5511"><name>Rural de Pages - Saint Martin De Caralp (9) [&lt;51] &gt;+33561651543 (530m)</name></wpt><wpt lat="42.9793" lon="-0.16544"><name>A la ferme la Caoussariou - Arcizans Dessus (65) [&lt;51] &gt;+33562970911 (827m)</name></wpt><wpt lat="42.98027" lon="-0.41395"><name>Le Valentin - Laruns (64) &gt;+33559053933 (529m)</name></wpt><wpt lat="42.98041" lon="-0.15965"><name>Edelweiss - Arcizans Dessus (65) &gt;+33562970945 (813m)</name></wpt><wpt lat="42.98063" lon="1.97001"><name>Aire naturelle de Terpant Pierre - Montbel (9) [&lt;51] &gt;+33468692018 (415m)</name></wpt><wpt lat="42.98083" lon="-0.41943"><name>Pont de Lauguere - Laruns (64) &gt;+33559053599 (496m)</name></wpt><wpt lat="42.9812" lon="-0.06467"><name>Le Viscos - Beaucens (65) [&lt;51] &gt;+33562970545 (473m)</name></wpt><wpt lat="42.98139" lon="-0.15538"><name>Aire naturelle la Prade - Arcizans Dessus (65) [&lt;51] &gt;+33562972085 (778m)</name></wpt><wpt lat="42.98251" lon="-0.41745"><name>Les Gaves - Laruns (64) &gt;+33559053237 (491m)</name></wpt><wpt lat="42.9839" lon="-0.42372"><name>Le Gourzy - Laruns (64) [&lt;51] &gt;+33559053112 (510m)</name></wpt><wpt lat="42.98411" lon="1.93509"><name>La Regate - Leran (9) [&lt;51] (30/03-26/10) &gt;+33561030917 -CCA(400m)</name></wpt><wpt lat="42.98555" lon="-0.10564"><name>Les Chataigniers - Arcizans Avant (65) [&lt;51] &gt;+33562979477 (639m)</name></wpt><wpt lat="42.98635" lon="-0.10872"><name>Le Lac - Arcizans Avant (65) &gt;+33562970188 (637m)</name></wpt><wpt lat="42.98645" lon="1.99194"><name>Rural l'Emeraude - Chalabre (11) [&lt;51] &gt;+33468692854 (421m)</name></wpt><wpt lat="42.98658" lon="-0.08864"><name>Les Frenes - Lau Balagnas (65) &gt;+33562972512 (439m)</name></wpt><wpt lat="42.98729" lon="-0.43091"><name>Bartheque - Laruns (64) &gt;+33559053888 (541m)</name></wpt><wpt lat="42.98812" lon="-0.08942"><name>Le Lavedan - Argeles Gazost (65) (01/01-31/12) &gt;+33562971884 -CCpg159(439m)</name></wpt><wpt lat="42.98929" lon="1.61556"><name>Du Lac - Foix (9) (15/01-15/12) &gt;+33561651158 -CCpg162(367m)</name></wpt><wpt lat="42.99011" lon="-0.42156"><name>Aygueberre - Laruns (64) &gt;+33559053855 (499m)</name></wpt><wpt lat="42.991" lon="2.07213"><name>Raulet - Saint Benoit (11) [&lt;51] (01/06-30/09) &gt;+33468693331 (592m)</name></wpt><wpt lat="42.99119" lon="0.69446"><name>Pyrenees Emotions - Malvezie (31) [&lt;51] (15/04-31/10) &gt;+33561881467 (798m)</name></wpt><wpt lat="42.99129" lon="-0.131"><name>Le Picourlet - Arras en Lavedan (65) &gt;+33562972542 (721m)</name></wpt><wpt lat="42.99189" lon="-0.12837"><name>Relais De l'Aubisque - Arras en Lavedan (65) [&lt;51] &gt;+33689700848 (697m)</name></wpt><wpt lat="42.99195" lon="-0.07158"><name>Hautacam - Prechac (65) [&lt;51] &gt;+33562971033 (443m)</name></wpt><wpt lat="42.99233" lon="-0.09363"><name>Aire naturelle La Chapelle - Lau Balagnas (65) [&lt;51] &gt;+33631346494 (461m)</name></wpt><wpt lat="42.99278" lon="1.67852"><name>Naturist - Millefleurs - Varilhes (9) [&lt;51] &gt;+33561607756 (475m)</name></wpt><wpt lat="42.99378" lon="-0.41893"><name>Municipal Beost - Beost (64) &gt;+33559053193 (483m)</name></wpt><wpt lat="42.99483" lon="2.25571"><name>Val d'Aleth - Alet les Bains (11) [&lt;51] &gt;+33468699040 (205m)</name></wpt><wpt lat="42.99514" lon="-0.1205"><name>l'Ideal - Arras en Lavedan (65) &gt;+33562970313 (650m)</name></wpt><wpt lat="42.99629" lon="1.30505"><name>La Ferme de Lac de Peyrau - Rimont (9) [&lt;51] &gt;+33561963585 (460m)</name></wpt><wpt lat="42.99742" lon="1.87191"><name>La Serre - Aigues Vives (9) [&lt;51] &gt;+33561030616 (432m)</name></wpt><wpt lat="42.9979" lon="-0.09174"><name>La Prairie - Lau Balagnas (65) [&lt;51] &gt;+33562971187 (434m)</name></wpt><wpt lat="42.99798" lon="3.04105"><name>Cap du Roc*** - Port La Nouvelle (01/04-30/09) &gt;+33468480098 (4m)</name></wpt><wpt lat="42.99808" lon="3.04935"><name>Cote Vermeille* - Port La Nouvelle (15/04-15/09) &gt;+33468480580 (2m)</name></wpt><wpt lat="42.99817" lon="-0.60435"><name>Municipal De Carolle - Bedous (64) [&lt;51] &gt;+33559347045 (402m)</name></wpt><wpt lat="43.00001" lon="0.37892"><name>La Bourie** - Heches (65) (01/01-31/12) &gt;+33562987319 (594m)</name></wpt><wpt lat="43.0004" lon="2.82079"><name>Municipal L'Espazo - Durban Corbieres (11) &gt;+33468450681 (92m)</name></wpt><wpt lat="43.00181" lon="1.44542"><name>L'Arize - La Bastide De Serou (9) (01/04-12/11) &gt;+33561658151 -CCA(428m)</name></wpt><wpt lat="43.00332" lon="-0.42041"><name>Le Geteu - Louvie Soubiron (64) [&lt;51] &gt;+33559053715 (481m)</name></wpt><wpt lat="43.00575" lon="1.73"><name>Aire naturelle de Comelongue - Ventenac (9) [&lt;51] (01/03-31/10) &gt;+33561607243 (454m)</name></wpt><wpt lat="43.00689" lon="1.63138"><name>La Ferme de Marseillas - Saint Jean De Verges (9) [&lt;51] &gt;+33685471747 (397m)</name></wpt><wpt lat="43.00733" lon="1.18415"><name>Audinac Les Bains - Montjoie en Couserans (9) (01/04-15/10) &gt;+33561664450 (440m)</name></wpt><wpt lat="43.00742" lon="0.18777"><name>Le Saint Roch - Campan (65) [&lt;51] &gt;+33559303807 (692m)</name></wpt><wpt lat="43.00955" lon="0.79681"><name>Municipal Le Cagire - Aspet (31) &gt;+33561885155 (443m)</name></wpt><wpt lat="43.01127" lon="-0.07822"><name>Le Deth Potz - Boo Silhen (65) &gt;+33562903723 -CCA(489m)</name></wpt><wpt lat="43.01147" lon="1.9251"><name>Le Roc Del Rey - Belloc (9) [&lt;51] (28/04-15/10) &gt;+33561688793 (439m)</name></wpt><wpt lat="43.01207" lon="-0.0972"><name>Les Trois Vallees - Argeles Gazost (65) (29/03-15/10) &gt;+33562903547 -CCA(427m)</name></wpt><wpt lat="43.01289" lon="-0.11255"><name>Aire naturelle de Noguez Celestin - Gez (65) [&lt;51] &gt;+33562970818 (623m)</name></wpt><wpt lat="43.01494" lon="3.04578"><name>Municipal Du Golfe** - Port La Nouvelle (01/04-30/09) &gt;+33468480842 (3m)</name></wpt><wpt lat="43.01544" lon="0.71058"><name>Ferme du Vignaut - Malvezie (31) [&lt;51] &gt;+33561796646 (624m)</name></wpt><wpt lat="43.01544" lon="1.97429"><name>Ferme La Besse - Camon (9) [&lt;51] (01/01-31/12) &gt;+33561688463 -CCA(423m)</name></wpt><wpt lat="43.01654" lon="-0.86129"><name>Ibarra - Sainte Engrace (64) [&lt;51] &gt;+33559287359 (398m)</name></wpt><wpt lat="43.01741" lon="-0.09671"><name>La Bergerie - Ayzac Ost (65) (01/05-30/09) &gt;+33562975999 -CCA(425m)</name></wpt><wpt lat="43.01747" lon="-0.95161"><name>Ixtila - Larrau (64) [&lt;51] &gt;+33559286309 (613m)</name></wpt><wpt lat="43.01776" lon="-0.41691"><name>Aire naturelle de Balesta Jacques - Aste-Beon (64) [&lt;51] &gt;+33559349101 (468m)</name></wpt><wpt lat="43.018" lon="0.17595"><name>Le Layris - Campan (65) [&lt;51] &gt;+33562917534 (656m)</name></wpt><wpt lat="43.0188" lon="-0.092"><name>Aire naturelle Bellevue - Ayzac Ost (65) [&lt;51] &gt;+33562975881 (419m)</name></wpt><wpt lat="43.02085" lon="-0.42043"><name>Municipal De Monplaisir - Gere Belesten (64) &gt;+33559826118 (461m)</name></wpt><wpt lat="43.02107" lon="6.43814"><name>Naturist - La Pinede-Heliopolis - Ile du Levant &gt;+33494059352 (84m)</name></wpt><wpt lat="43.0246" lon="2.97698"><name>Ensoya - Sigean (01/07-31/08) &gt;+33468484368 -CCpg191(10m)</name></wpt><wpt lat="43.02604" lon="0.16976"><name>l'Arriou - Beaudean (65) &gt;+33562917404 (637m)</name></wpt><wpt lat="43.02794" lon="0.60923"><name>Municipal Bords de Garonne* - Loures Barousse (15/02-15/11) &gt;+33562992929 (440m)</name></wpt><wpt lat="43.02827" lon="0.57859"><name>Es Pibous*** - Saint Bertrand de Comminges (01/03-31/10) &gt;+33561883142 (461m)</name></wpt><wpt lat="43.02962" lon="-0.10423"><name>La Ferme du Plantier - Ouzous (65) [&lt;51] &gt;+33562975801 (544m)</name></wpt><wpt lat="43.02964" lon="6.15592"><name>La Tour Fondue - Hyeres (83) (05/04-31/10) &gt;+33494582286 -CCA(19m)</name></wpt><wpt lat="43.02987" lon="1.00021"><name>L'Estelas** - Mauvezin De Prat [&lt;51] (01/04-15/10) &gt;+33561966580 (357m)</name></wpt><wpt lat="43.03129" lon="1.93728"><name>La Pibola - Mirepoix (9) [&lt;51] (01/01-31/12) &gt;+33561681214 (374m)</name></wpt><wpt lat="43.03142" lon="-0.07491"><name>La Chataigneraie - Agos Vidalos (65) (01/12-15/10) &gt;+33562970740 -CCA(414m)</name></wpt><wpt lat="43.03504" lon="-0.07138"><name>Le Rural - Agos Vidalos (65) [&lt;51] &gt;+33562903153 (406m)</name></wpt><wpt lat="43.03553" lon="-0.07091"><name>Le Soleil du Pibeste - Agos Vidalos (65) (01/05-01/10) &gt;+33562975323 (405m)</name></wpt><wpt lat="43.03631" lon="0.32051"><name>Le Randonneur - Esparros (65) [&lt;51] &gt;+33562391934 (519m)</name></wpt><wpt lat="43.03893" lon="6.14878"><name>Le Mediterranee - Hyeres (83) &gt;+33494582106 (7m)</name></wpt><wpt lat="43.03956" lon="6.1472"><name>l' Ile d'Or - Hyeres (83) &gt;+33494582055 (9m)</name></wpt><wpt lat="43.03958" lon="6.10333"><name>Olbia - Hyeres (83) (15/04-30/09) &gt;+33494582286 -CCA(14m)</name></wpt><wpt lat="43.04082" lon="6.14314"><name>La Presqu'Ile de Giens - Hyeres (83) (28/03-11/10) &gt;+33494582286 -CCpg229(7m)</name></wpt><wpt lat="43.04144" lon="6.12807"><name>International de Giens - Hyeres (83) &gt;+33494589016 (3m)</name></wpt><wpt lat="43.04469" lon="6.14612"><name>La Bergerie - Hyeres (83) &gt;+33494589175 (1m)</name></wpt><wpt lat="43.04712" lon="1.63201"><name>Municipal Du Parc Du Chateau - Varilhes (9) &gt;+33561674284 (331m)</name></wpt><wpt lat="43.04723" lon="0.81381"><name>Aire naturelle de Jean-Marie Ispa - Couret (31) [&lt;51] (409m)</name></wpt><wpt lat="43.04734" lon="2.2228"><name>Municipal Du Breil - Limoux (11) [&lt;51] &gt;+33468311363 (171m)</name></wpt><wpt lat="43.05257" lon="0.15893"><name>l'Adour - Gerde (65) &gt;+33562952761 (573m)</name></wpt><wpt lat="43.05445" lon="1.34185"><name>La Ferme Vergers de Sesame - Le Mas d'Azil [&lt;51] &gt;+33561699956 (345m)</name></wpt><wpt lat="43.05595" lon="0.16517"><name>La Pommeraie - Gerde (65) [&lt;51] &gt;+33562951642 (577m)</name></wpt><wpt lat="43.05603" lon="6.14784"><name>Eurosurf - Hyeres (83) &gt;+33494580020 (1m)</name></wpt><wpt lat="43.05775" lon="-0.04107"><name>Aire Naturelle Arrayade - Ger (65) [&lt;51] (15/05-30/09) &gt;+33562941773 (398m)</name></wpt><wpt lat="43.06253" lon="1.62142"><name>Les Mijeannes - Rieux De Pelleport (9) (01/01-31/12) &gt;+33561608223 -CCA(316m)</name></wpt><wpt lat="43.06321" lon="-0.42428"><name>l'Ayguelade - Bielle (64) &gt;+33559826650 (430m)</name></wpt><wpt lat="43.0663" lon="2.94088"><name>La Grange Neuve*** - Sigean (01/01-31/12) &gt;+33468485870 (9m)</name></wpt><wpt lat="43.06666" lon="-0.4159"><name>Aire Naturelle Cazenave Doux - Castet (64) [&lt;51] &gt;+33559058826 (429m)</name></wpt><wpt lat="43.06775" lon="-0.87667"><name>Aire naturelle de Bouchet Sauveur - Licq Atherey (64) [&lt;51] &gt;+33559286101 (261m)</name></wpt><wpt lat="43.069" lon="0.55353"><name>Le Rural - Tibiran Jaunac (65) [&lt;51] &gt;+33561883450 (453m)</name></wpt><wpt lat="43.07037" lon="5.87584"><name>Les Pins**** - La Seyne sur Mer (25/06-05/09) &gt;+33494639145 (18m)</name></wpt><wpt lat="43.07125" lon="0.1563"><name>Les Fruitiers - Bagneres de Bigorre (65) &gt;+33562952597 (543m)</name></wpt><wpt lat="43.07164" lon="5.85762"><name>Buffalo Hacienda*** - La Seyne sur Mer (01/01-31/12) &gt;+33494747208 (85m)</name></wpt><wpt lat="43.07171" lon="0.48031"><name>La Neste** - Saint Laurent de Neste [&lt;51] (01/05-30/09) &gt;+33562397338 (464m)</name></wpt><wpt lat="43.07243" lon="5.82462"><name>La Pinede*** - Six Fours les Plages (01/06-30/09) &gt;+33494340639 (76m)</name></wpt><wpt lat="43.07398" lon="1.37192"><name>La Ferme Vergers de Sesame- Le Mas d'Azil (9) [&lt;51] &gt;+33561699956 (372m)</name></wpt><wpt lat="43.07487" lon="0.16869"><name>Bellevue des Palomieres - Bagneres de Bigorre (65) &gt;+33562910397 (676m)</name></wpt><wpt lat="43.07487" lon="-0.54314"><name>Le Moulin de Barescou - Escot (64) [&lt;51] &gt;+33559344397 (641m)</name></wpt><wpt lat="43.07817" lon="5.81165"><name>Au Jardin de la Ferme - Six Fours les Plages (83) [&lt;51] (01/01-31/12) &gt;+33494340107 (18m)</name></wpt><wpt lat="43.07859" lon="1.47112"><name>Aire naturelle de Dedieu Gaston - Montegut Plantaurel (9) [&lt;51] &gt;+33561673494 (318m)</name></wpt><wpt lat="43.0787" lon="0.9498"><name>Municipal La Justale** - Mane (01/04-31/10) &gt;+33561906818 (305m)</name></wpt><wpt lat="43.07878" lon="1.37822"><name>Le Petit Pyreneen - Le Mas d'Azil (9) (04/04-05/10) &gt;+33561697137 -CCA(288m)</name></wpt><wpt lat="43.07944" lon="0.16733"><name>Les Palomieres - Bagneres de Bigorre (65) &gt;+33562955979 (656m)</name></wpt><wpt lat="43.08015" lon="0.67622"><name>Municipal* - Labarthe Riviere [&lt;51] (01/05-30/09) &gt;+33561890322 (398m)</name></wpt><wpt lat="43.08031" lon="0.13985"><name>Le Bigourdan - Pouzac (65) &gt;+33562951357 (517m)</name></wpt><wpt lat="43.08168" lon="0.15114"><name>Le Monloo - Bagneres de Bigorre (65) (01/01-31/12) &gt;+33562951965 -CCA(525m)</name></wpt><wpt lat="43.0829" lon="-0.42044"><name>Municipal De la Vallee d'Ossau - Izeste (64) &gt;+33559056867 (420m)</name></wpt><wpt lat="43.08299" lon="0.1557"><name>Le Mesnil - Bagneres de Bigorre (65) [&lt;51] (01/06-30/09) &gt;+33562910009 (607m)</name></wpt><wpt lat="43.0837" lon="6.12472"><name>Saint Pierre des Horts - Hyeres (83) &gt;+33494576531 (19m)</name></wpt><wpt lat="43.08551" lon="-0.04319"><name>Les Deux Pics du Jer - Lourdes (65) [&lt;51] &gt;+33562942094 (408m)</name></wpt><wpt lat="43.0859" lon="0.28087"><name>Aire naturelle Moulin des Baronnies - Sarlabous [&lt;51] (01/05-31/10) &gt;+33562390514 (351m)</name></wpt><wpt lat="43.08597" lon="0.55418"><name>Les Hortensias* - Montrejeau [&lt;51] (01/04-31/10) &gt;+33561957443 (476m)</name></wpt><wpt lat="43.08677" lon="6.02875"><name>Mauvallon 2 - Le Pradet (83) &gt;+33494082404 (35m)</name></wpt><wpt lat="43.08706" lon="6.02868"><name>Mauvallon I - Le Pradet (83) &gt;+33494213173 (36m)</name></wpt><wpt lat="43.08721" lon="0.13227"><name>Le Bedat - Pouzac (65) &gt;+33562955817 (503m)</name></wpt><wpt lat="43.08885" lon="1.88657"><name>Les Nysades - Mirepoix (9) &gt;+33561602863 (303m)</name></wpt><wpt lat="43.08939" lon="-0.41058"><name>Le Rey - Louvie Juzon (64) (15/03-15/11) &gt;+33559057852 -CCA(495m)</name></wpt><wpt lat="43.09014" lon="6.12783"><name>Les Colonnes - Hyeres (83) &gt;+33494577041 (11m)</name></wpt><wpt lat="43.09021" lon="0.54094"><name>Rural de Laduree Suzanne - Montrejeau (31) [&lt;51] &gt;+33561958265 (512m)</name></wpt><wpt lat="43.09176" lon="0.55383"><name>Midi Pyrenees** - Montrejeau (01/01-31/12) &gt;+33561958679 -CCA(509m)</name></wpt><wpt lat="43.09254" lon="6.05689"><name>Les Arbousiers - Carqueiranne (83) &gt;+33494585656 (101m)</name></wpt><wpt lat="43.09265" lon="-0.37093"><name>Le Rocher Blanc - Louvie Juzon (64) [&lt;51] &gt;+33688633252 (381m)</name></wpt><wpt lat="43.09301" lon="6.13963"><name>Les Peupliers - Hyeres (83) &gt;+33494389594 (5m)</name></wpt><wpt lat="43.09326" lon="-0.02164"><name>Le Ruisseau Blanc - Lourdes (65) &gt;+33562429483 (415m)</name></wpt><wpt lat="43.09348" lon="6.13609"><name>Le Mare e Sole - Hyeres (83) &gt;+33494575521 (7m)</name></wpt><wpt lat="43.09354" lon="6.16351"><name>Les Pins Maritimes - Hyeres (83) &gt;+33494663407 (1m)</name></wpt><wpt lat="43.09364" lon="0.12292"><name>Parc des Oiseaux - Trebons (65) (01/04-30/10) &gt;+33562953026 (504m)</name></wpt><wpt lat="43.09526" lon="2.61831"><name>Municipal de Boucocers - Lagrasse (11) &gt;+33468431005 (160m)</name></wpt><wpt lat="43.09561" lon="-0.07463"><name>La Foret - Lourdes (65) (29/03-31/10) &gt;+33562940438 -CCA(428m)</name></wpt><wpt lat="43.09695" lon="-0.04297"><name>La Poste - Lourdes (65) [&lt;51] &gt;+33562944035 (404m)</name></wpt><wpt lat="43.09773" lon="-0.06986"><name>Le Loup - Lourdes (65) &gt;+33562942360 (381m)</name></wpt><wpt lat="43.09854" lon="-0.72215"><name>Municipal Pont de l'Arroue - Arette (64) &gt;+33559399802 (315m)</name></wpt><wpt lat="43.09921" lon="2.37945"><name>A la ferme de Labau - Ladern sur Lauquet (11) [&lt;51] &gt;+33468694463 (216m)</name></wpt><wpt lat="43.09939" lon="6.03111"><name>l'Artaudois - Le Pradet (83) (01/04-15/10) &gt;+33494217261 -CCA(57m)</name></wpt><wpt lat="43.09993" lon="6.16854"><name>Bernard - Hyeres (83) &gt;+33494663054 (1m)</name></wpt><wpt lat="43.10094" lon="-0.14195"><name>Les Rives du Gave - Saint Pe de Bigorre (65) [&lt;51] &gt;+33562418029 (353m)</name></wpt><wpt lat="43.10096" lon="6.16944"><name>Du Ceinturon III - Hyeres (83) &gt;+33494663265 (1m)</name></wpt><wpt lat="43.10153" lon="-0.12871"><name>Le Prat Dou Rey - Peyrouse (65) (07/03-12/10) &gt;+33562418154 (369m)</name></wpt><wpt lat="43.10236" lon="-0.0277"><name>Le Sarsan - Lourdes (65) (01/04-15/10) &gt;+33562944309 -CCA-BD_FR-P.033(411m)</name></wpt><wpt lat="43.10257" lon="-0.05845"><name>Le Prat - Lourdes (65) [&lt;51] &gt;+33562418154 (411m)</name></wpt><wpt lat="43.10267" lon="3.08478"><name>Municipal** - Gruissan (01/05-15/09) &gt;+33468490722 (3m)</name></wpt><wpt lat="43.10361" lon="5.8504"><name>International Saint Jean*** - Six Fours les Plages (01/01-31/12) &gt;+33494875151 (44m)</name></wpt><wpt lat="43.10365" lon="6.01633"><name>l'Hermitage - Le Pradet (83) &gt;+33494217819 (55m)</name></wpt><wpt lat="43.10371" lon="-0.13973"><name>La Grotte aux Fees - Saint Pe de Bigorre (65) &gt;+33562418163 (350m)</name></wpt><wpt lat="43.10443" lon="-0.03315"><name>Le Vieux Berger - Lourdes (65) [&lt;51] &gt;+33562946057 (419m)</name></wpt><wpt lat="43.10454" lon="-0.06792"><name>l'Arrouach - Lourdes (65) [&lt;51] &gt;+33562421143 (409m)</name></wpt><wpt lat="43.1047" lon="6.00812"><name>Le Pin de Galle - Le Pradet (83) &gt;+33494084579 (34m)</name></wpt><wpt lat="43.10497" lon="-0.03447"><name>Le Domec - Lourdes (65) &gt;+33562940879 (426m)</name></wpt><wpt lat="43.10544" lon="0.32352"><name>Les Craoues*** - Capvern (01/04-31/10) &gt;+33562390254 (599m)</name></wpt><wpt lat="43.10587" lon="-0.42332"><name>Municipal - Arudy (64) [&lt;51] &gt;+33559058044 (403m)</name></wpt><wpt lat="43.10714" lon="1.5372"><name>Rural de Blandinieres Marcel - Madiere (9) [&lt;51] &gt;+33561672103 (315m)</name></wpt><wpt lat="43.10715" lon="6.04309"><name>Lou Pantai - Le Pradet (83) &gt;+33494751077 (44m)</name></wpt><wpt lat="43.108" lon="6.049"><name>Les Palmiers - Carqueiranne (83) &gt;+33494586401 (34m)</name></wpt><wpt lat="43.10819" lon="-0.91113"><name>La Ferme Sobieta - Alcay Alcabehety Sunharette (64) [&lt;51] &gt;+33559285226 (300m)</name></wpt><wpt lat="43.10898" lon="6.13901"><name>Rural Olbius Riquier - Hyeres (83) [&lt;51] &gt;+33494572500 (9m)</name></wpt><wpt lat="43.10912" lon="-0.06261"><name>Theil - Lourdes (65) [&lt;51] &gt;+33562942459 (412m)</name></wpt><wpt lat="43.10915" lon="-0.88192"><name>A la Ferme Carrique - Alos Sibas Abense (64) [&lt;51] (01/06-30/09) &gt;+33559285025 (223m)</name></wpt><wpt lat="43.10943" lon="5.85375"><name>Les Mimosas*** - La Seyne sur Mer (01/01-31/12) &gt;+33494947315 (36m)</name></wpt><wpt lat="43.10998" lon="0.70811"><name>Municipal Belvedere Des Pyrenees*** - Saint Gaudens (01/06-30/09) &gt;+33562001603 (407m)</name></wpt><wpt lat="43.11019" lon="5.85313"><name>Les Fontanettes*** - La Seyne sur Mer (83) (01/01-31/12) &gt;+33494947507 -CCA(40m)</name></wpt><wpt lat="43.11091" lon="6.17957"><name>Aire naturelle Les Joseph - Hyeres (83) &gt;+33611477499 (1m)</name></wpt><wpt lat="43.11158" lon="-0.86363"><name>Le Pont d'Abense - Tardets Sorholus (64) [&lt;51] (15/03-11/11) &gt;+33559285876 -CCA(225m)</name></wpt><wpt lat="43.11197" lon="0.04928"><name>Le Cerf Volant - Orincles (65) [&lt;51] (15/05-15/10) &gt;+33562429932 (391m)</name></wpt><wpt lat="43.112" lon="6.17794"><name>Les Fontetes - Hyeres (83) &gt;+33494664325 (1m)</name></wpt><wpt lat="43.11297" lon="5.83045"><name>Les Playes** - Six Fours les Plages (83) (01/01-31/12) &gt;+33494255757 -CCA(65m)</name></wpt><wpt lat="43.11426" lon="-0.03663"><name>Plein Soleil - Lourdes (65) [&lt;51] (06/04-10/10) &gt;+33562944093 (426m)</name></wpt><wpt lat="43.11434" lon="-0.07531"><name>Relais Ocean Pyrenees - Poueyferre (65) &gt;+33562945722 (429m)</name></wpt><wpt lat="43.11436" lon="6.05613"><name>Le Beau Veze - Carqueiranne (83) (01/05-15/09) &gt;+33494576530 -CCpg228-CCA(58m)</name></wpt><wpt lat="43.11487" lon="6.09588"><name>Aire naturelle Belle De Mai - Hyeres (83) &gt;+33494384665 (42m)</name></wpt><wpt lat="43.11524" lon="6.09461"><name>Rural Les Loubes - Hyeres (83) &gt;+33494574774 (42m)</name></wpt><wpt lat="43.11559" lon="-0.03152"><name>Le Moulin du Monge - Lourdes (65) (01/04-10/10) &gt;+33562942815 -CCA(420m)</name></wpt><wpt lat="43.11615" lon="5.83828"><name>Orly d'Azur*** - Six Fours les Plages (01/01-31/12) &gt;+33494255941 (28m)</name></wpt><wpt lat="43.11721" lon="6.23625"><name>Le Pansard - La Londe les Maures (83) (30/03-30/09) &gt;+33494668322 (1m)</name></wpt><wpt lat="43.11727" lon="2.73609"><name>Le Pinada** - Villerouge La Cremade (01/04-30/09) &gt;+33468433229 (154m)</name></wpt><wpt lat="43.11773" lon="6.35128"><name>Du Domaine - Bormes les Mimosas (83) &gt;+33494710312 (19m)</name></wpt><wpt lat="43.11844" lon="0.31314"><name>La Plenitude** - Capvern les Bains [&lt;51] (01/04-31/10) &gt;+33562391456 (520m)</name></wpt><wpt lat="43.11846" lon="-0.37806"><name>Aire naturelle La Ramiere - Sainte Colome (64) [&lt;51] &gt;+33559056369 (468m)</name></wpt><wpt lat="43.11848" lon="-0.05006"><name>Aire naturelle Les Bergeronnettes - Bartres (65) [&lt;51] &gt;+33562944204 (516m)</name></wpt><wpt lat="43.11848" lon="-0.61236"><name>Les 4 saisons - Asasp Arros (64) [&lt;51] &gt;+33559344310 (268m)</name></wpt><wpt lat="43.11858" lon="6.18628"><name>Clos Rose Marie - Hyeres (83) &gt;+33494664121 (1m)</name></wpt><wpt lat="43.11861" lon="6.24691"><name>Miramar - La Londe les Maures (83) &gt;+33494668058 (1m)</name></wpt><wpt lat="43.11865" lon="3.06677"><name>Domaine de la Capoulade - Gruissan (11) [&lt;51] &gt;+33468322759 (32m)</name></wpt><wpt lat="43.11871" lon="1.79411"><name>Bel Repayre - Manses (9) [&lt;51] &gt;+33561681199 (407m)</name></wpt><wpt lat="43.1192" lon="6.16011"><name>La Condamine - Hyeres (83) &gt;+33494383774 (7m)</name></wpt><wpt lat="43.1205" lon="6.18464"><name>Port Pothuau - Hyeres (83) (06/04-13/10) &gt;+33494664117 (2m)</name></wpt><wpt lat="43.12124" lon="-0.73258"><name>Baretous-Pyrenees - Aramits (64) [&lt;51] (18/02-26/10) &gt;+33559341221 -CCpg157(280m)</name></wpt><wpt lat="43.1219" lon="6.23543"><name>Les Moulieres - La Londe les Maures (83) &gt;+33494015321 (5m)</name></wpt><wpt lat="43.12191" lon="-0.77433"><name>Municipal De Plasence - Lanne en Baretous (64) [&lt;51] &gt;+33559346206 (364m)</name></wpt><wpt lat="43.12232" lon="6.06954"><name>Holiday Giavis - La Crau (83) &gt;+33494389438 (40m)</name></wpt><wpt lat="43.12284" lon="6.18721"><name>Le Capricorne - Hyeres (83) &gt;+33494664094 (3m)</name></wpt><wpt lat="43.12296" lon="6.3506"><name>La Celinette - Bormes les Mimosas (83) &gt;+33494710798 (21m)</name></wpt><wpt lat="43.12366" lon="5.78796"><name>Mogador*** - Sanary sur Mer (83) (28/03-03/11) &gt;+33494745316 -CCA(34m)</name></wpt><wpt lat="43.12395" lon="6.33145"><name>La Griotte - Bormes les Mimosas (83) &gt;+33494152072 (45m)</name></wpt><wpt lat="43.1242" lon="6.35106"><name>Les Cypres - Bormes les Mimosas (83) &gt;+33494648650 (19m)</name></wpt><wpt lat="43.12429" lon="2.26109"><name>Au Pin d'Arnauteille - Montclar (11) (17/04-15/09) &gt;+33468268453 (240m)</name></wpt><wpt lat="43.12455" lon="-0.30889"><name>Le Landistou - Bruges Capbis Mifaget (64) [&lt;51] &gt;+33559710698 (315m)</name></wpt><wpt lat="43.12484" lon="-0.46234"><name>Municipal Les Chenes - Buzy (64) [&lt;51] &gt;+33559210556 (418m)</name></wpt><wpt lat="43.12489" lon="1.60212"><name>l'Apamee - Pamiers (9) [&lt;51] (01/05-30/10) &gt;+33561600689 -CCpg163(274m)</name></wpt><wpt lat="43.12678" lon="6.20544"><name>Rural de Chretienne - La Londe les Maures (83) &gt;+33494668190 (6m)</name></wpt><wpt lat="43.12825" lon="5.9951"><name>La Lezardiere - La Valette du Var (83) &gt;+33494750662 (90m)</name></wpt><wpt lat="43.12843" lon="6.24224"><name>La Brulade - La Londe les Maures (83) &gt;+33494668628 (9m)</name></wpt><wpt lat="43.12885" lon="1.53003"><name>Le Bon Choix - Escosse (9) [&lt;51] (01/04-31/10) &gt;+33561670255 (342m)</name></wpt><wpt lat="43.12966" lon="-0.20668"><name>Le Saillet - Lestelle Betharram (64) &gt;+33559719865 (299m)</name></wpt><wpt lat="43.13008" lon="6.21661"><name>La Pascalinette - La Londe les Maures (83) &gt;+33494668272 (15m)</name></wpt><wpt lat="43.13015" lon="6.34926"><name>Le Grand Batailler - Bormes les Mimosas (83) [&lt;51] &gt;+33494710841 (14m)</name></wpt><wpt lat="43.13155" lon="5.81494"><name>Mas de Pierredon**** - Sanary sur Mer (83) (20/04-30/09) &gt;+33494742502 -CCA(35m)</name></wpt><wpt lat="43.13225" lon="3.13929"><name>Les Ayguades - Gruissan (11) &gt;+33468498159 (2m)</name></wpt><wpt lat="43.13346" lon="6.32848"><name>A la Ferme La Chevrerie - Bormes les Mimosas (83) [&lt;51] (01/05-15/09) &gt;+33494648624 (35m)</name></wpt><wpt lat="43.13397" lon="6.35324"><name>Les Citronniers - Le Lavandou (83) [&lt;51] &gt;+33494649615 (8m)</name></wpt><wpt lat="43.13432" lon="0.93077"><name>Municipal** - Saint Martory [&lt;51] (15/06-15/09) &gt;+33561974048 (292m)</name></wpt><wpt lat="43.13514" lon="6.35132"><name>Beau Sejour - Le Lavandou (83) &gt;+33494712530 (9m)</name></wpt><wpt lat="43.13614" lon="6.35435"><name>Saint-Pons - Le Lavandou (83) &gt;+33494710393 -BD_FR-R.124(9m)</name></wpt><wpt lat="43.13658" lon="3.0256"><name>Les Mimosas*** - Narbonne (11( (12/04-31/10) &gt;+33468439455 -CCA(4m)</name></wpt><wpt lat="43.13678" lon="-0.02726"><name>La Chataigneraie* - Ade [&lt;51] (15/06-15/09) &gt;+33562942963 (424m)</name></wpt><wpt lat="43.13791" lon="1.44385"><name>Municipal Des Eychecadous - Artigat (9) [&lt;51] &gt;+33561689824 (261m)</name></wpt><wpt lat="43.1388" lon="2.70272"><name>Aire naturelle Municipale Fabrezan - Fabrezan (11) [&lt;51] (08/07-25/08) &gt;+33468278144 (68m)</name></wpt><wpt lat="43.13885" lon="1.12486"><name>Ferme Equestre Equiloisirs - Sainte Croix Volvestre (9) [&lt;51] &gt;+33561964132 (387m)</name></wpt><wpt lat="43.14128" lon="6.34951"><name>Le Ravel - Bormes les Mimosas (83) [&lt;51] &gt;+33494710690 (24m)</name></wpt><wpt lat="43.14259" lon="-0.91574"><name>Elizamburu - Ossas Suhare (64) [&lt;51] &gt;+33559284277 (261m)</name></wpt><wpt lat="43.14338" lon="3.14421"><name>La Cote Des Roses - Narbonne (11) (01/05-07/09) &gt;+33468498365 -CCpg193-CCA(2m)</name></wpt><wpt lat="43.14342" lon="-0.8883"><name>Albide - Ossas Suhare (64) [&lt;51] &gt;+33559285881 (193m)</name></wpt><wpt lat="43.14463" lon="6.38087"><name>Saint Clair - Le Lavandou (83) &gt;+33494013020 (18m)</name></wpt><wpt lat="43.14507" lon="3.14222"><name>Soleil D'Oc*** - Narbonne (01/04-15/10) &gt;+33468498621 -CCpg192(1m)</name></wpt><wpt lat="43.14691" lon="3.00403"><name>La Nautique*** - Narbonne (11) (01/03-31/10) &gt;+33468904819 -CCA-BD_FR-Q.102b(15m)</name></wpt><wpt lat="43.15014" lon="6.26307"><name>La Pabourette - La Londe les Maures (83) (15/06-15/09) &gt;+33494668092 (40m)</name></wpt><wpt lat="43.15086" lon="2.72391"><name>Municipal** - Ferrals Les Corbieres [&lt;51] (15/06-31/08) &gt;+33468277575 (59m)</name></wpt><wpt lat="43.15163" lon="-0.44509"><name>Aire Naturelle Les Jardins d'Ossau - Buzy (64) [&lt;51] &gt;+33559210571 (369m)</name></wpt><wpt lat="43.15179" lon="5.71511"><name>Le Port d'Alon** - Saint Cyr sur Mer (10/04-30/09) &gt;+33494265646 (28m)</name></wpt><wpt lat="43.15288" lon="6.1289"><name>Vert Gapeau - Hyeres (83) &gt;+33494656855 (14m)</name></wpt><wpt lat="43.15313" lon="5.74584"><name>Vallongue** - Bandol (01/04-30/09) &gt;+33494294955 (131m)</name></wpt><wpt lat="43.155" lon="-0.68603"><name>Le Vieux Moulin - Feas (64) &gt;+33559398118 (240m)</name></wpt><wpt lat="43.15561" lon="-0.59478"><name>Le Val du Gave d'Aspe - Gurmencon (64) [&lt;51] &gt;+33559360507 (264m)</name></wpt><wpt lat="43.15623" lon="6.10291"><name>Rural Les Arbousiers - La Crau (83) [&lt;51] &gt;+33624402038 (59m)</name></wpt><wpt lat="43.15633" lon="6.44804"><name>Le Pramousquier - Le Lavandou (83) (19/04-29/09) &gt;+33494058395 -CCA(27m)</name></wpt><wpt lat="43.15696" lon="6.30821"><name>La Ferme des Janets - Bormes les Mimosas (83) [&lt;51] &gt;+33494714511 (60m)</name></wpt><wpt lat="43.15852" lon="2.2935"><name>Grand Sud*** - Preixan (11) (01/04-30/09) &gt;+33468268818 -CCA(126m)</name></wpt><wpt lat="43.1596" lon="5.72933"><name>Clos Sainte Therese*** - St Cyr-Mer (83) (05/04-30/09) &gt;+33494321221 -CCA(131m)</name></wpt><wpt lat="43.15996" lon="3.16238"><name>La Falaise*** - Narbonne (01/04-30/09) &gt;+33468498077 (3m)</name></wpt><wpt lat="43.16019" lon="-0.82699"><name>Eyharche - Barcus  [&lt;51] (01/07-01/11) &gt;+33559289452 (391m)</name></wpt><wpt lat="43.16032" lon="6.43417"><name>Lei Suves - Le Lavandou (83) &gt;+33494454395 -CCA(53m)</name></wpt><wpt lat="43.16058" lon="6.1056"><name>Les Bois de Mont-Redon - La Crau (83) &gt;+33494667334 (57m)</name></wpt><wpt lat="43.16112" lon="-0.68723"><name>Colline - Feas [&lt;51] (15/05-30/09) &gt;+33559361402 (241m)</name></wpt><wpt lat="43.1613" lon="-1.23646"><name>Municipal De Plaza-Berri - Saint Jean Pied de Port (64) &gt;+33559371119 (171m)</name></wpt><wpt lat="43.16175" lon="6.43544"><name>l'Hubac du Bleu - Le Lavandou (83) (01/04-30/09) &gt;+33494058388 (76m)</name></wpt><wpt lat="43.16252" lon="6.3214"><name>Manjastre - Bormes les Mimosas (83) (01/01-31/12) &gt;+33494710328 -CCpg230(79m)</name></wpt><wpt lat="43.16293" lon="2.68629"><name>Aire naturelle Municipale Fontcouverte - Fontcouverte (11) [&lt;51] &gt;+33468439066 (87m)</name></wpt><wpt lat="43.16303" lon="2.89167"><name>Figurotta* - Bizanet [&lt;51] (01/01-31/12) &gt;+33468451626 (105m)</name></wpt><wpt lat="43.16389" lon="1.84469"><name>A la Ferme Polfages - Villautou (11) [&lt;51] &gt;+33468606526 (348m)</name></wpt><wpt lat="43.1654" lon="-1.19364"><name>Mendy - Saint Jean le Vieux (64) [&lt;51] &gt;+33559371181 (204m)</name></wpt><wpt lat="43.16582" lon="2.03733"><name>A la ferme Les Brugues - Fanjeaux (11) [&lt;51] (01/06-30/09) &gt;+33468247737 (336m)</name></wpt><wpt lat="43.16613" lon="-1.24507"><name>De la Truite - Uhart Cize (64) [&lt;51] &gt;+33559373122 (155m)</name></wpt><wpt lat="43.1664" lon="3.03815"><name>Les Floralys** - Narbonne [&lt;51] (01/03-30/11) &gt;+33468326565 (5m)</name></wpt><wpt lat="43.16698" lon="-1.21561"><name>Aire naturelle La Magdeleine - Saint Jean le Vieux (64) [&lt;51] &gt;+33559370263 (176m)</name></wpt><wpt lat="43.167" lon="6.51942"><name>Bonporteau - Cavalaire sur Mer (83) (15/03-15/10) &gt;+33494640324 -CCA(22m)</name></wpt><wpt lat="43.16739" lon="-1.23471"><name>l'Arradoy - Saint Jean Pied de Port (64) &gt;+33559370039 (159m)</name></wpt><wpt lat="43.1695" lon="1.52311"><name>A la ferme Du Lac de la Laure - Unzent (9) [&lt;51] &gt;+33561603316 (305m)</name></wpt><wpt lat="43.16962" lon="6.53001"><name>La Baie - Cavalaire sur Mer (83) (15/03-15/11) &gt;+33494640815 -CCA(17m)</name></wpt><wpt lat="43.17052" lon="6.52129"><name>La Treille - Cavalaire sur Mer (83) (11/04-11/10) &gt;+33494643181 -CCpg231(24m)</name></wpt><wpt lat="43.17065" lon="0.00165"><name>La Bergerie** - Lanne (01/07-05/09) &gt;+33562454005 (366m)</name></wpt><wpt lat="43.17192" lon="0.07984"><name>Aire naturelle Le Moulin - Momeres (65) [&lt;51] &gt;+33562459434 (374m)</name></wpt><wpt lat="43.172" lon="6.52493"><name>La Pinede - Cavalaire sur Mer (83) &gt;+33494641114 (17m)</name></wpt><wpt lat="43.1724" lon="5.6958"><name>Les Baumelles*** - Saint Cyr sur Mer (01/04-31/10) &gt;+33494262127 (8m)</name></wpt><wpt lat="43.17304" lon="-1.25416"><name>Europ'Camping - Ascarat (64) [&lt;51] &gt;+33559371278 (158m)</name></wpt><wpt lat="43.17305" lon="1.41018"><name>Municipal Lailleres - Le Fossat (9) [&lt;51] &gt;+33561685012 (242m)</name></wpt><wpt lat="43.17736" lon="-1.216"><name>La Paix des Champs - Saint Jean le Vieux (64) [&lt;51] &gt;+33559370416 (177m)</name></wpt><wpt lat="43.17748" lon="-1.25971"><name>Narbaitz - St Jean Pied de Port (64) (26/04-12/09) &gt;+33559371013 -CCA(150m)</name></wpt><wpt lat="43.17763" lon="2.01701"><name>A la Ferme La Chevaline- Fanjeaux (11) [&lt;51] (01/06-16/09) &gt;+33468247533 (333m)</name></wpt><wpt lat="43.17847" lon="0.97459"><name>Municipal Du Lac** - Boussens [&lt;51] (01/01-31/12) &gt;+33561900360 (265m)</name></wpt><wpt lat="43.17867" lon="-0.62373"><name>GîteS du Stade - Oloron Sainte Marie (64) &gt;+33559391126 (241m)</name></wpt><wpt lat="43.17918" lon="2.37035"><name>A L'Ombre Des Oliviers*** - Cazilhac (01/01-31/12) &gt;+33468796508 (147m)</name></wpt><wpt lat="43.18241" lon="6.51656"><name>Cros de Mouton - Cavalaire (83) (15/03-01/11) &gt;+33494641087 -CCA(57m)</name></wpt><wpt lat="43.1837" lon="-1.33569"><name>Municipal l'Irouleguy - Saint Etienne de Baigorry (64) &gt;+33559374396 (147m)</name></wpt><wpt lat="43.18493" lon="6.0636"><name>La ferme Le Petit Real - Sollies Pont [&lt;51] &gt;+33494289480 (62m)</name></wpt><wpt lat="43.18531" lon="5.60733"><name>La Sauge** - La Ciotat (01/04-30/09) &gt;+33442834765 (20m)</name></wpt><wpt lat="43.18666" lon="6.06136"><name>Les Amandiers - Sollies Pont (83) &gt;+33494289081 (65m)</name></wpt><wpt lat="43.18702" lon="3.19863"><name>Municipal Pissevaches - Fleury (11) &gt;+33468498079 (2m)</name></wpt><wpt lat="43.18737" lon="5.65811"><name>La Baie des Anges**** - La Ciotat (01/04-30/09) &gt;+338000234729 (30m)</name></wpt><wpt lat="43.18764" lon="0.24137"><name>Municipal Du Rensou** - Tournay [&lt;51] (01/01-31/12) &gt;+33562352262 (259m)</name></wpt><wpt lat="43.18925" lon="5.64506"><name>Santa Gusta - La Ciotat &gt;+33442831417 (14m)</name></wpt><wpt lat="43.19014" lon="5.63699"><name>Belle Plage** - La Ciotat [&lt;51] (01/01-31/12) &gt;+33442831472 (7m)</name></wpt><wpt lat="43.19077" lon="-1.25364"><name>La Truite - Ascarat (64) &gt;+33559373122 (144m)</name></wpt><wpt lat="43.19103" lon="1.60313"><name>Le Canteraines - Le Vernet (09) [&lt;51] &gt;+33673956251 (252m)</name></wpt><wpt lat="43.19144" lon="1.01681"><name>Le Moulin*** - Martres Tolosane (31) (01/04-05/10) &gt;+33561988640 -CCA(255m)</name></wpt><wpt lat="43.19206" lon="1.45689"><name>Le Bourdieu - Durfort (9) [&lt;51] (30/05-10/10) &gt;+33561673017 -CCpg164(285m)</name></wpt><wpt lat="43.19209" lon="0.37393"><name>La Promesse - Bonrepos (65) [&lt;51] &gt;+33562395810 (434m)</name></wpt><wpt lat="43.19283" lon="6.63558"><name>La Cigale - Ramatuelle (83) &gt;+33494792253 (66m)</name></wpt><wpt lat="43.19379" lon="1.64732"><name>Le Domaine de Montaut - Montaut (9) [&lt;51] &gt;+33561683416 (295m)</name></wpt><wpt lat="43.19437" lon="6.55513"><name>Selection - La Croix Valmer (83) (15/03-15/10) &gt;+33494551030 -CCA(23m)</name></wpt><wpt lat="43.19668" lon="1.40613"><name>La Ferme de La Reoule - Le Fossat (9) [&lt;51] &gt;+33561685828 (305m)</name></wpt><wpt lat="43.19702" lon="1.06731"><name>Le Plantaurel*** - Palaminy (01/01-31/12) &gt;+33561970371 (239m)</name></wpt><wpt lat="43.19752" lon="2.14493"><name>Municipal* - Montreal [&lt;51] (15/06-31/08) &gt;+33468762005 (229m)</name></wpt><wpt lat="43.20021" lon="2.35366"><name>La Cite*** - Carcassonne (25/03-05/10) &gt;+33468251177 (109m)</name></wpt><wpt lat="43.20199" lon="5.73814"><name>La Malissonne**** - La Cadiere d'Azur (05/03-20/11) &gt;+33494901060 (99m)</name></wpt><wpt lat="43.20203" lon="-0.93935"><name>La Ferme Landran - Mauleon (64) [&lt;51] &gt;+33559281955 (219m)</name></wpt>